名称,大类,中类,地址,经度,纬度,省份,城市,区域,交通设施,休闲娱乐,购物消费,医疗保健,运动健身,科教文化,餐饮美食,旅游景点
上海城建学院专家公寓,商务住宅,其他,一号路附近,121.55505,31.32604,上海市,上海市,杨浦区,0.01506279871939348,0.12048828211208355,0.039428949101885595,0.008823848872158858,0.009218542879255805,0.047846912967620676,0.010280541702936132,0.022537609112853695
上海城建学院十单元宿舍,商务住宅,宿舍,[],121.556074,31.325097,上海市,上海市,杨浦区,0.008120832399586218,0.12090308423888044,0.031980240602987105,0.004319346454370771,0.006772040548085396,0.03291875872763905,0.004825474167516889,0.017739006325819418
上海城建学院九单元宿舍,商务住宅,宿舍,军工路2360号,121.556975,31.325053,上海市,上海市,杨浦区,0.0,0.1098394251308995,0.024576578136011218,0.0,0.0,0.01708058738259769,0.0,0.010158472932611568
上海城建学院八单元宿舍楼,商务住宅,宿舍,[],121.556521,31.325094,上海市,上海市,杨浦区,0.003901317891589938,0.11521955923128212,0.028093407794659943,0.002068898291158409,0.003222293800053799,0.024615795835585166,0.002285099284255899,0.013802737128030757
上海城市管理职业技术学院杨浦分校第二单元南楼,商务住宅,宿舍,军工路2394附近,121.555451,31.326673,上海市,上海市,杨浦区,0.008746459868033825,0.10645099623742546,0.033320466198113886,0.005207915159048426,0.0016980827786729357,0.035080921896186536,0.0063533639139154935,0.015164381650020877
上海城市管理职业技术学院杨浦分校第三单元南楼,商务住宅,宿舍,军工路2398号附近,121.555327,31.326967,上海市,上海市,杨浦区,0.00901061501202385,0.10337688277924888,0.033742007231631684,0.005330276145459954,0.0009576747382723153,0.03522190488553203,0.00664802992974138,0.01460528524185008
上海城市管理职业技术学院杨浦分校第一单元南楼,商务住宅,宿舍,军工路2394附近,121.555569,31.326461,上海市,上海市,杨浦区,0.008283261117911077,0.10824396690104783,0.03275000565440998,0.0049429952643556055,0.0020193717848756777,0.034348911120162924,0.005941157424304206,0.015276014301786886
上海城市管理职业技术学院杨浦分校第二单元北楼,商务住宅,宿舍,军工路2394附近,121.555398,31.326747,上海市,上海市,杨浦区,0.009027614968141678,0.10593581590928111,0.03364393586862844,0.005363815976868573,0.0016826412617113003,0.035544807037352265,0.006577744532832243,0.01522760530881539
上海城市管理职业技术学院杨浦分校第四单元南楼,商务住宅,宿舍,[],121.555121,31.327172,上海市,上海市,杨浦区,0.010395205606771117,0.1024304715761646,0.035300919785597344,0.006079495878027284,0.001440708468395475,0.037503931164835386,0.007692351358556867,0.0152856791814007
上海城市管理职业技术学院杨浦分校第一单元北楼,商务住宅,宿舍,军工路2394附近,121.555502,31.326518,上海市,上海市,杨浦区,0.008754355418015537,0.10817588297633655,0.033250202435179656,0.00521184144040879,0.002223496932357317,0.035230010908621795,0.006289406741500905,0.015570182886864466
双喜家园,商务住宅,住宅区,杨树浦路1177弄7号,121.533402,31.253967,上海市,上海市,杨浦区,0.4155164572535702,0.10960776625492673,0.2743460323248543,0.3662295846414785,0.11841298967805876,0.3971725747603591,0.2398868544459971,0.24986543496716704
中企滨江智慧广场,商务住宅,写字楼,杨树浦路1366号,121.537235,31.254202,上海市,上海市,杨浦区,0.3535994834516693,0.09852990935096799,0.23872956330499434,0.344771606523738,0.09212134745180159,0.3440934950223522,0.22236802531475547,0.20841106796485265
东方渔人码头,商务住宅,写字楼,平凉路街道杨树浦路1088号,121.532162,31.251969,上海市,上海市,杨浦区,0.337191988148426,0.08052105211764982,0.208924369977873,0.2861467618767793,0.08778099251637203,0.31461268597886216,0.17790527809668757,0.192823302418541
Prodor柏凡,酒店住宿,五星级宾馆,安浦路579号,121.534716,31.252084,上海市,上海市,杨浦区,0.31013178842552885,0.07445249985940716,0.1900819915603109,0.28476480688327493,0.07189552667158007,0.28818772014125577,0.1745970403499453,0.17473623774440797
杨树浦路1111弄小区,商务住宅,住宅区,福宁路与江浦路交叉口东80米,121.53234,31.253608,上海市,上海市,杨浦区,0.41231013428995983,0.10644254908480655,0.2692886698174367,0.35300289136575197,0.11876521784284125,0.3940277893448756,0.22967048153332947,0.24683034927451544
山鹰国际总部大楼,商务住宅,其他,安浦路645号滨江国际广场6号楼,121.531257,31.251132,上海市,上海市,杨浦区,0.30725310588822513,0.07241739096365651,0.18768366539870662,0.25028293242316224,0.0784294333861966,0.2864642340758829,0.15408439936610488,0.17158711135872678
双喜公寓,商务住宅,住宅区,[],121.533807,31.253753,上海市,上海市,杨浦区,0.3993820210893557,0.10458707479988695,0.2616892083077642,0.35648021451749157,0.11099952697566601,0.3802000888805607,0.2314818244523344,0.2385329022757487
山金保利金融广场(建设中),商务住宅,其他,杨树浦路1198号,121.534834,31.253214,上海市,上海市,杨浦区,0.35822272651569714,0.09209247488782797,0.22958675534441686,0.3295704378014037,0.092672896520151,0.33864173158459904,0.2094676750897269,0.20953386759048973
杨树浦路1177弄7号,商务住宅,其他,杨树浦路1191号附近,121.533928,31.253946,上海市,上海市,杨浦区,0.4064997630734051,0.10759762301269528,0.26823716233349504,0.36368113078533654,0.11408049226973789,0.3878697497917229,0.23749255818964907,0.24378873947426077
上海市杨浦区杨树浦1062号滨江国际广场3F,商务住宅,其他,安浦路645号附近,121.531063,31.251338,上海市,上海市,杨浦区,0.3181449622644548,0.07567210599280169,0.19551697380897984,0.2581175587680791,0.08354317265965323,0.2978182379641576,0.1598289476701911,0.17910735512293094
东方渔人码头国际中心A区,商务住宅,住宅区,江浦路与杨树浦路交叉口西南60米,121.531405,31.252437,上海市,上海市,杨浦区,0.3662316028240506,0.08992612293468975,0.23132404600051037,0.3040507416362323,0.10219719035544436,0.345937933977923,0.19243236156811605,0.21320880081271945
东方渔人码头国际中心n办公区,商务住宅,其他,杨树浦路1088号,121.531523,31.252343,上海市,上海市,杨浦区,0.3607449263545475,0.08812606167833163,0.22704570624360876,0.30050221070486066,0.09950627584137069,0.3399681825809857,0.18955183915584312,0.20933718573488533
长发里,商务住宅,住宅区,杨树浦路1877弄1-14号,121.542859,31.260765,上海市,上海市,杨浦区,0.42260433576799394,0.17960552523705325,0.4450704217429172,0.4390915975723761,0.17399348353205377,0.48313626887765665,0.35036711095831863,0.28435663785065557
依仁里,商务住宅,住宅区,杨树浦路1963弄1-129号,121.543587,31.262003,上海市,上海市,杨浦区,0.4331820411008602,0.19893827452908855,0.49333884532564093,0.45669147025874635,0.19188614935237147,0.5073278101100044,0.3765712774385516,0.2998156625105888
丰泰世纪公寓,商务住宅,住宅区,杨树浦路1736弄,121.542252,31.258569,上海市,上海市,杨浦区,0.3740981064186953,0.1412917978415574,0.3453924916209053,0.38611672369168887,0.1317626550470665,0.41510257979526366,0.28609573073262257,0.23830277681670747
松茂坊,商务住宅,住宅区,周家牌路与松潘路交叉口东50米,121.541436,31.260605,上海市,上海市,杨浦区,0.46521822257017503,0.18634879940903512,0.46376128318140514,0.46763074055732756,0.18640304393901339,0.5161833483726964,0.37659318665883856,0.31243957534996103
周家牌路109弄小区,商务住宅,住宅区,杭州路与三星路交叉口东南160米,121.542347,31.261903,上海市,上海市,杨浦区,0.472412922931493,0.20589868601761788,0.5122862720257345,0.48473484421574825,0.20372293285639645,0.5356614793126544,0.40340103140622624,0.32599814599936566
华忻坊,商务住宅,住宅区,杨树浦路1991弄1-201号,121.544116,31.262543,上海市,上海市,杨浦区,0.4295578249382026,0.20541638485365393,0.509964276005146,0.4569935571085268,0.19727178581096622,0.5115441371323273,0.3819103387173917,0.30145158697503466
嘉豪居,商务住宅,住宅区,[],121.540538,31.261119,上海市,上海市,杨浦区,0.5099092955840754,0.201087443640683,0.5042489976054796,0.5003031496604337,0.20715274346528137,0.5571956707961384,0.41307755751135733,0.3462392516071812
志仁里,商务住宅,住宅区,临青路75弄1-37号,121.544358,31.26315,上海市,上海市,杨浦区,0.43698563161214715,0.2153336454063343,0.5347544815167011,0.46616787312342844,0.20804686090757693,0.52539231423244,0.3967664401473533,0.31149088567069966
界宇公寓,酒店住宿,旅馆招待所,杨树浦路与松潘路交叉口西南40米,121.541655,31.259001,上海市,上海市,杨浦区,0.40778966148444895,0.1536571105042332,0.3780748455755628,0.41429295152226125,0.14823220067752596,0.44892079226104836,0.31392587739987626,0.26340306383380485
怡德里,商务住宅,住宅区,杨树浦路1851弄,121.542492,31.260497,上海市,上海市,杨浦区,0.42686361754023094,0.17705553446919461,0.43863135584086776,0.4400046091994078,0.1724117293390769,0.48305126311468527,0.34942163015707167,0.28561505336449183
润玉里,商务住宅,住宅区,杨树浦路1825弄,121.542049,31.260238,上海市,上海市,杨浦区,0.4337680784894807,0.1750917286456301,0.433965038120078,0.44277588175178356,0.17167532005382025,0.48576961614188696,0.3501111443448268,0.28868075641992175
明德里(松潘路),商务住宅,住宅区,松潘路120弄,121.541036,31.261728,上海市,上海市,杨浦区,0.5109995794826871,0.20987449021423962,0.526459261892011,0.5077448840819794,0.21419130597464,0.5634205389382284,0.42542458781619963,0.3510702509986447
里仁依,商务住宅,住宅区,临青路与杨树浦路交叉口西北40米,121.544929,31.262843,上海市,上海市,杨浦区,0.40949576770571317,0.20410904346162562,0.507192298123726,0.44193079788718226,0.19338484359808328,0.49998842722194325,0.36977015548272096,0.29024723747751796
存和里,商务住宅,住宅区,杨树浦路1761弄,121.54137,31.259259,上海市,上海市,杨浦区,0.4254768913367229,0.160417545265037,0.3962614776203834,0.4288548784467098,0.15722667269042248,0.46700853066522463,0.32904833803625366,0.27688125684958537
杨树浦路1991弄75号,商务住宅,住宅区,杨树浦路1979-1981号附近,121.543921,31.262153,上海市,上海市,杨浦区,0.42583635521618024,0.1992296932354095,0.4942156572899281,0.45178788052489305,0.19109103603189256,0.5035972885803692,0.37321163929102963,0.29590509720365205
纺三小区,商务住宅,住宅区,许昌路227弄1-216号,121.524773,31.254105,上海市,上海市,杨浦区,0.4513883910086134,0.12512720350843412,0.31412755230426703,0.30063697203840195,0.17805112426491992,0.4709497433986535,0.21666622516162157,0.27119635733545616
滨江国际广场,商务住宅,写字楼,杨树浦路1056-1058号,121.530484,31.25136,上海市,上海市,杨浦区,0.32333619378540335,0.07790151400620131,0.19979726948526702,0.2568685447400214,0.08802810581192279,0.3048097332478528,0.1601272634938768,0.1825742797537482
百恩坊小区,商务住宅,住宅区,通北路与杨树浦路交叉口北40米,121.523544,31.252819,上海市,上海市,杨浦区,0.38123800888209963,0.10742260432435624,0.26160996605027403,0.2367034340289744,0.1556250925101718,0.40762696181303576,0.17328222806011032,0.22269746272006838
阳光城大厦,商务住宅,写字楼,安浦路与怀德路交叉口东北40米,121.530014,31.252048,上海市,上海市,杨浦区,0.35819395228492307,0.08877220921147234,0.22584695560409232,0.28226669152205447,0.10431884770212707,0.34170482866932583,0.1793522885067495,0.20695314039329216
八埭头滨江园(建设中),商务住宅,住宅区,杨树浦路633号,121.521958,31.252795,上海市,上海市,杨浦区,0.3618596548565126,0.10462025819175547,0.2553061856713719,0.2133551184964378,0.15865002458779565,0.3968546758710521,0.16168680235426994,0.21035193655576298
新康里(通北路),商务住宅,住宅区,通北路与扬州路交叉口东120米,121.523833,31.253558,上海市,上海市,杨浦区,0.41776764010344836,0.11751870318083762,0.29134405556996534,0.2662292143964343,0.17082814592132192,0.44415822534213073,0.19526531287056378,0.24825458535700218
龙江路2号,商务住宅,住宅区,[],121.52613,31.2538,上海市,上海市,杨浦区,0.44521583964738953,0.12051681851198787,0.3013186521282445,0.3095091502647304,0.16370909325574767,0.4531449134894865,0.21598991915215526,0.26637105266440014
上水小区,商务住宅,住宅区,杨树浦路373附近,121.529854,31.253206,上海市,上海市,杨浦区,0.41436873072501296,0.10646936711592817,0.2699137886679529,0.3278940644877708,0.12803326352407252,0.4006996063419221,0.2142739442194276,0.24668927597782003
申泉小区,商务住宅,住宅区,怀德路201弄,121.528165,31.253574,上海市,上海市,杨浦区,0.43803218299523017,0.11532384155053574,0.2896221120926181,0.32720296780670594,0.14603057972127803,0.43248795210021224,0.21974267355935345,0.2619965955871051
百忍坊小区,商务住宅,住宅区,通北路22弄2-8号,121.523634,31.253022,上海市,上海市,杨浦区,0.39130701492505343,0.11023107880818475,0.2697614096059453,0.2446843958919036,0.15975515890592137,0.4177134002836567,0.17932788977541136,0.2297421839859922
南方水中心,商务住宅,住宅区,许昌路230号,121.525412,31.252991,上海市,上海市,杨浦区,0.40342830586227774,0.10989743220042973,0.270656826368586,0.2691836753188499,0.1513347608738712,0.4170104929698351,0.18914311376906667,0.23737697083074613
康翔商务楼,商务住宅,写字楼,杨树浦路622号,121.522192,31.252062,上海市,上海市,杨浦区,0.33277934280606747,0.0951106339694264,0.22858763042162714,0.19503914196787114,0.14191933616743624,0.36314766406124466,0.14489266794874886,0.1897623983635396
平凉路街道社区睦邻中心,商务住宅,社区中心,龙江路2号,121.526171,31.253857,上海市,上海市,杨浦区,0.4481293218591558,0.12128635365679614,0.30352317929128825,0.3123308418595368,0.16462490157801746,0.45579678108332483,0.21788579299778504,0.26840427491362306
许昌路277弄30号,商务住宅,其他,扬州路纺三小区(欧洲凯城园西南150米),121.524311,31.253845,上海市,上海市,杨浦区,0.4354039149840123,0.12155174750549691,0.3034134104703878,0.28379723057901735,0.17490527795042415,0.458602858096113,0.2063731065969154,0.26029939089513343
杨浦区平凉路街道龙江路睦邻小厨(龙江路店),商务住宅,社区中心,龙江路欧洲凯城园南侧,121.526437,31.254121,上海市,上海市,杨浦区,0.4619225339568756,0.12487300018800883,0.3137048571952387,0.32651867272318374,0.16842404730355476,0.4678778675121294,0.22717491153428607,0.2780436299414388
许昌路227弄15号,商务住宅,住宅区,许昌路231附近,121.525101,31.253945,上海市,上海市,杨浦区,0.44620958432180574,0.12290343970915589,0.3076886633227967,0.2997193061431245,0.17281040131508804,0.46282931674589095,0.21407912834010737,0.26736987597170564
江浦路157弄小区,商务住宅,住宅区,江浦路157弄21-141号,121.530164,31.253891,上海市,上海市,杨浦区,0.4458459490732782,0.11656936379470789,0.2959789331598785,0.3573426067444074,0.13979306517943865,0.4328071003804169,0.2368267252782616,0.26922853305290334
许昌路277弄40号,商务住宅,其他,许昌路203号附近,121.524925,31.254073,上海市,上海市,杨浦区,0.4510258956112623,0.12468318460291104,0.3128504202356894,0.3018289584523484,0.17652132723515299,0.4692535723897119,0.21668695498165846,0.2708430922853874
许昌路277弄44号,商务住宅,其他,纺三小区(许昌路南),121.525196,31.254207,上海市,上海市,杨浦区,0.45932684556285125,0.12650821488786196,0.3182056185070949,0.31124687967689735,0.17777853224491255,0.47531735884334947,0.22222295783394225,0.27652498662353714
许昌路277弄60号,商务住宅,其他,纺三小区(许昌路西80米),121.524637,31.254156,上海市,上海市,杨浦区,0.4527270952760973,0.12581229776011574,0.3161766111390592,0.3004258621465678,0.17988501152464212,0.47347725166590077,0.2172758215616012,0.2722272511610902
许昌路277弄213号,商务住宅,其他,纺三小区(许昌路西50米),121.524709,31.253413,上海市,上海市,杨浦区,0.4184257872104047,0.11579083226478415,0.28656636413395614,0.27399578086220006,0.16359509003625491,0.43796656352579977,0.19677116295245126,0.24812284611469287
许昌路277弄14号,商务住宅,其他,许昌路205号附近,121.52516,31.253969,上海市,上海市,杨浦区,0.44775324127395555,0.12321658647060638,0.30863888728899225,0.3015516254256762,0.17297886867160084,0.4638738637163071,0.21512274534008335,0.2684222820689856
许昌路277弄62号,商务住宅,其他,许昌路216号附近,121.52452,31.254081,上海市,上海市,杨浦区,0.44823220294006394,0.1247820838053186,0.31308102508068425,0.2957640354381333,0.17891318232627362,0.469920111869141,0.21439184685165105,0.2691583170140723
许昌路277弄32号,商务住宅,其他,许昌路227弄-10号附近,121.524474,31.253919,上海市,上海市,杨浦区,0.4402329186841723,0.12258366562197862,0.3065100673525633,0.2890177823282231,0.17567591783765507,0.4621739181452864,0.2094958358633492,0.26357432483712445
许昌路277弄104号,商务住宅,其他,纺三小区怀德路第一小学,121.525639,31.254037,上海市,上海市,杨浦区,0.45399717396324674,0.12403712884678184,0.31115505072601746,0.31151309658674586,0.17157449220324897,0.4660858003526674,0.21995997315626997,0.2726238725771418
许昌路277弄216号,商务住宅,其他,扬州路纺三小区南门,121.52487,31.25321,上海市,上海市,杨浦区,0.41015687126893113,0.11304630872819854,0.2787249275435708,0.26907201914890055,0.1585276263337601,0.428290658068134,0.19212785726763007,0.24226400707376394
扬州路208弄30号,商务住宅,其他,许昌路212号附近,121.523589,31.254005,上海市,上海市,杨浦区,0.4360317852674311,0.12336720240057931,0.30890691653644425,0.27847210033347564,0.18171259636664996,0.4651318527922147,0.20612328864001295,0.2614050712849839
杨树浦路1001弄小区,商务住宅,住宅区,杨树浦路1001弄8-38号,121.529429,31.253099,上海市,上海市,杨浦区,0.4113451257969795,0.1059087732363606,0.2675776506408452,0.3204515057105803,0.12858389068564466,0.3990696247138964,0.20980642292704377,0.24423061119257206
知音阁,酒店住宿,其他,共青路21号(近巴士公交总站),121.562591,31.273947,上海市,上海市,杨浦区,0.11865024649950921,0.05588542136953936,0.2465381944150258,0.09527403346125184,0.0213457296443728,0.18299730441858508,0.0648831632036098,0.09999544719924226
航道公寓楼,商务住宅,其他,共青路82号,121.563601,31.275271,上海市,上海市,杨浦区,0.10432343687550055,0.049477093219047405,0.21961826889931166,0.07534771277424408,0.012631492911876954,0.15642739860205776,0.05350434861383189,0.08546383366020766
上海海洋渔业有限公司招待所,酒店住宿,旅馆招待所,共青路457号,121.560974,31.290612,上海市,上海市,杨浦区,0.06473237780453113,0.025798988110430063,0.13677168362223477,0.04231931525222777,0.0428310928654518,0.09311446443328764,0.04210393901024761,0.045005450293472506
友谊物流复兴岛共青路210号库区,商务住宅,产业园区,复兴岛(地铁站)2号口步行392米,121.562802,31.283932,上海市,上海市,杨浦区,0.08789539347364886,0.042028785503714326,0.1598436304748057,0.05373953861335714,0.034448816175576935,0.1155017891525532,0.05223674624319494,0.06088597467747405
上理小区,商务住宅,住宅区,军工路516弄,121.55342,31.291954,上海市,上海市,杨浦区,0.16935543437974263,0.045387643510638766,0.31318392368337516,0.18344011915314354,0.13943994781209437,0.3344168807187653,0.13346877457682507,0.1574790695826075
军工路600弄小区,商务住宅,住宅区,民治路与军工路辅路交叉口东60米,121.550516,31.292017,上海市,上海市,杨浦区,0.22384198267823696,0.0601809847360594,0.4250245179259679,0.26171830619556474,0.17162205027513583,0.4615563315073625,0.1821995433802738,0.21267993898623808
鑫民园区,商务住宅,产业园区,民治路7号,121.550778,31.293288,上海市,上海市,杨浦区,0.202445211935732,0.054093767966958625,0.3921949578704296,0.24208211218221765,0.1642977439022658,0.4197115827061983,0.1685541846616194,0.1976356402944241
嘉御影视产业园A区,商务住宅,产业园区,军工路1076号174幢,121.551076,31.297406,上海市,上海市,杨浦区,0.16698671676558136,0.03998042706746103,0.29973591636285873,0.18118396045179194,0.14643143053859078,0.30902370438856547,0.13103172292186296,0.15995513229139183
上海理工大学军工路校区先进制造科技创新基地,商务住宅,产业园区,军工路580号,121.554147,31.293781,上海市,上海市,杨浦区,0.13634619741533188,0.03450469485484768,0.2605968856792612,0.14788922024840517,0.12541302737502485,0.272204651220387,0.10898804430533551,0.12999559145515746
民治路12弄,商务住宅,住宅区,民治路12弄1-41号,121.552181,31.294549,上海市,上海市,杨浦区,0.1635956042652417,0.041706682879564555,0.31467684067017004,0.18990048933162684,0.14486715569110734,0.3315563784846561,0.1346779686622131,0.16053945165840294
上海理工大学第三学生宿舍,商务住宅,宿舍,上海理工大学军工路校区第三学生公寓1号楼,121.556738,31.293775,上海市,上海市,杨浦区,0.09634555532939545,0.023260871444473755,0.18907888146797988,0.09205853276878032,0.0926946784281938,0.18228172086883224,0.07158153286492669,0.08624327030394333
民治路15弄,商务住宅,住宅区,民治路与春江路交叉口西南60米,121.550759,31.294505,上海市,上海市,杨浦区,0.19109251095195665,0.049916270530582445,0.3693657490909587,0.22896885325966887,0.16114870516068494,0.3900172710202618,0.1597933448720142,0.18878089830929534
上海理工大学军工路校区-第九学生宿舍,商务住宅,宿舍,军工路,121.557003,31.294302,上海市,上海市,杨浦区,0.0880584996707426,0.019838650182435184,0.17668027516901352,0.08310545867018984,0.08618589291987352,0.1676968317716651,0.06482521144158553,0.07862586945454358
上海理工大学-五宿舍,商务住宅,宿舍,军工路516号,121.557117,31.292092,上海市,上海市,杨浦区,0.10662644417183761,0.029969366590441554,0.20017375162183892,0.09660068936917596,0.09407855144475043,0.19040555230093198,0.07718167499912928,0.09126013823330645
上海理工新光电楼,商务住宅,其他,上理中路附近,121.554361,31.293772,上海市,上海市,杨浦区,0.13292985276272778,0.03355082892658706,0.2539829268631293,0.14291739339867748,0.12295198108988438,0.26435831311317065,0.10575753448331163,0.12624406513570036
上海理工大学军工路校区第八学生宿舍,商务住宅,宿舍,海安路16号上海理工大学-光学与电子信息工程学院,121.55797,31.292758,上海市,上海市,杨浦区,0.08762958698343502,0.02392551885814571,0.17342924012894875,0.0756741812046965,0.07924546242598493,0.15537452141339905,0.062475810754547494,0.07355719598260203
上海理工大学军工路校区-第一学生公寓北楼,商务住宅,宿舍,春江路学生宿舍附近,121.557769,31.294084,上海市,上海市,杨浦区,0.07894277674980575,0.018318368158087298,0.16297417820723806,0.07083373206654762,0.07610067561439479,0.14722467755567445,0.056908331553202136,0.06833068595412013
上海理工大学军工路校区第一学生公寓南楼,商务住宅,宿舍,军工路470号上海理工大学军工路校区,121.557901,31.293715,上海市,上海市,杨浦区,0.08019454336939547,0.01952136924718547,0.1644314565716991,0.07098827996683012,0.07601958943223568,0.14735464786733704,0.0575722503081371,0.06864559537679998
上海理工大学军工路校区第十二学生宿舍,商务住宅,宿舍,军工路516号,121.558142,31.29242,上海市,上海市,杨浦区,0.08822946627315897,0.025082933400416667,0.17350534403427786,0.07462851783882118,0.07804025932831463,0.15367048489437948,0.06241360641430153,0.07305066704765839
上海理工大学国家大学科技园,商务住宅,产业园区,翔殷路128号上海理工大学科技园内,121.551175,31.308779,上海市,上海市,杨浦区,0.15070271547539882,0.09711918512937119,0.1796184521207767,0.07996085089290252,0.13371212364284274,0.14665724299055655,0.07577906907139977,0.11250279668320665
小区,商务住宅,住宅区,虬江码头路2甲号,121.55532,31.309754,上海市,上海市,杨浦区,0.0763031122358769,0.07634277059990358,0.08490001358487051,0.017838076425657684,0.07714783054218867,0.04090451642308934,0.027873596317759278,0.05088829661788858
虬江码头路1弄1-19号小区,商务住宅,住宅区,虬江码头路与南翔殷路交叉口北200米,121.555611,31.306816,上海市,上海市,杨浦区,0.07140372658591662,0.03493552901966067,0.09288640349205984,0.01959930068664538,0.07667653059367298,0.04368630617068248,0.028809427942474375,0.04615817196116779
大西洋小区,商务住宅,住宅区,中环军工路立交桥与翔殷路隧道交叉口北200米,121.552346,31.30777,上海市,上海市,杨浦区,0.12890101230761075,0.07085794656113734,0.15359326150720995,0.06120939745784982,0.11941840812235413,0.11260650913800048,0.062025704592723774,0.09324477406829924
上海市五角场高新技术产业园,商务住宅,产业园区,南翔殷路与虬江码头路交叉口西北100米,121.554534,31.305749,上海市,上海市,杨浦区,0.08915632698539043,0.031241249404508144,0.11761628620038123,0.034015331402281905,0.09093580042212503,0.07140601874999979,0.0408471811139364,0.06124419741556605
洪东工业园区,商务住宅,产业园区,翔殷路115号附近,121.55243,31.306752,上海市,上海市,杨浦区,0.1272641809419859,0.055725080734255576,0.1558756015223026,0.062253958674962674,0.11830997575651929,0.11524789750832728,0.06273906812792365,0.09194270503162227
景昶工业园,商务住宅,产业园区,翔殷路20号6号楼,121.553381,31.307267,上海市,上海市,杨浦区,0.10970632157179808,0.055442820795371106,0.1326961229520275,0.046087837891850704,0.1054737077922731,0.08772368777022764,0.05048086110444085,0.0772409665985856
合生茶岸创业园,商务住宅,其他,五角场镇军工路1300号(老茶叶厂院内),121.550426,31.304412,上海市,上海市,杨浦区,0.16493679312997073,0.046277774472652376,0.2167895401982932,0.10816099953789803,0.14252390714728258,0.1954589110610091,0.09779645375482199,0.1298000668790177
杨浦区校园绿化发展基地,商务住宅,产业园区,翔殷路119号,121.550391,31.307149,上海市,上海市,杨浦区,0.16665255955607863,0.07606941681588329,0.20518055902282303,0.0987628464788382,0.14347776022311462,0.17426967083277856,0.08926930698870614,0.12481691561585742
顺达苑,商务住宅,住宅区,殷行路250弄58-72号,121.541362,31.329956,上海市,上海市,杨浦区,0.15524368532141786,0.11955818247123112,0.27927871520497394,0.1611566979867352,0.11246248802436612,0.41829053491982604,0.16579677333913778,0.14498949211902734
顺达小区(殷行路),商务住宅,住宅区,殷行路250号,121.541002,31.329069,上海市,上海市,杨浦区,0.17074058458380553,0.13842843455162807,0.303891408131071,0.18356745425261076,0.12976816389805476,0.4790578660116706,0.18137164966023567,0.1630952704912426
海情旅馆,酒店住宿,旅馆招待所,军工路2866号东方国际水产中心1栋,121.542507,31.332413,上海市,上海市,杨浦区,0.11127179457754775,0.07360495644993952,0.21396700911768132,0.10182549654158686,0.06457986359917045,0.25660981968965035,0.12001994619466064,0.09253964295442846
HM客房,酒店住宿,旅馆招待所,军工路与浚浦局路交叉口北160米,121.542565,31.332363,上海市,上海市,杨浦区,0.11134259319342132,0.07420008799577715,0.21390561269812844,0.10203941786164075,0.06467543539441445,0.25729215618899626,0.12002080604579093,0.09288892275137081
利之晶公寓,酒店住宿,其他,军工路2866号东方国际水产中心,121.543279,31.333278,上海市,上海市,杨浦区,0.0926884259984812,0.059151875854790266,0.1846604996838188,0.07890205606259736,0.04507667095049743,0.198715622511208,0.09893299005298502,0.07121009380946419
殷行路250弄1-57号小区,商务住宅,住宅区,[],121.541079,31.329113,上海市,上海市,杨浦区,0.1692494383172673,0.1374520725778511,0.30154498189882245,0.1816069421250378,0.12803774875914098,0.4738970692913046,0.17979860946986403,0.16168117627796733
殷行路250弄小区,商务住宅,住宅区,殷行路250弄1-71号,121.540995,31.329057,上海市,上海市,杨浦区,0.17097846717260912,0.13868308404720647,0.3042765440915075,0.18390733601107365,0.13003117564356906,0.4799523564209333,0.18161259627397913,0.1633578774319697
建发·璟墅,商务住宅,别墅,殷高东路889弄之1-49号,121.499539,31.319619,上海市,上海市,杨浦区,0.23011212357326938,0.07937591978551901,0.1337048987798319,0.13292075674658105,0.10800896682836839,0.11650066242927587,0.11541148400950711,0.10785629782144468
新江湾·戎锦苑,商务住宅,住宅区,睿达路51弄,121.499847,31.327237,上海市,上海市,杨浦区,0.12118197929229013,0.025947468983639053,0.02954649928770623,0.05845516772699464,0.08105445609471237,0.054765942610984955,0.046388050392883254,0.04178331409062407
三湘七星府邸,商务住宅,住宅区,政青路599,121.49733,31.319434,上海市,上海市,杨浦区,0.19216813420965292,0.06266465225615327,0.11731389346213021,0.11497489716592964,0.0731946909785495,0.09767823187811137,0.09468801219486354,0.08371453932438079
仁恒怡庭,商务住宅,住宅区,政和路388弄1-43号,121.514325,31.327598,上海市,上海市,杨浦区,0.2629956511627472,0.10070907615825564,0.14106889188566252,0.12036332073182356,0.2691330261940805,0.3103336508014449,0.11374052484756889,0.12467480676227607
友融集团办公楼,商务住宅,写字楼,闸殷路860号,121.516759,31.320038,上海市,上海市,杨浦区,0.42310247639954385,0.22033661353418327,0.32445867231297376,0.24683314441339627,0.3845308075604229,0.4223040356617178,0.27815763777640895,0.2718282208767166
政和路388弄小区,商务住宅,住宅区,政和路359号附近,121.512793,31.327778,上海市,上海市,杨浦区,0.24968358135243782,0.08971322728315138,0.12092105841557893,0.11117616832982051,0.24246515076901826,0.2768400414975835,0.0986525880684398,0.11460913330594726
祥富宾馆(上海民京路店),酒店住宿,宾馆酒店,民京路600号,121.520086,31.320527,上海市,上海市,杨浦区,0.41576044898896736,0.22253174645930848,0.3572263721435305,0.2791192837379877,0.3968756434201156,0.5603586378013417,0.30146751855639653,0.2800006682715036
沁风-雅苑,商务住宅,住宅区,新江湾城(地铁站)3号口步行710米,121.511357,31.326325,上海市,上海市,杨浦区,0.2585123102693387,0.09211018777332469,0.1258637716442816,0.11519217756579787,0.23278268692299545,0.2501780007312597,0.10454010696847701,0.1227699673329518
杨浦区新江湾城(建设中),商务住宅,住宅区,[],121.511878,31.325458,上海市,上海市,杨浦区,0.2767684806821191,0.10323739221827298,0.14627740139998507,0.12497288405436313,0.2512434411477375,0.2602773983776851,0.11944246739595343,0.1364057236512032
杨浦区新江湾城(建设中),商务住宅,别墅,[],121.511878,31.325458,上海市,上海市,杨浦区,0.2767684806821191,0.10323739221827298,0.14627740139998507,0.12497288405436313,0.2512434411477375,0.2602773983776851,0.11944246739595343,0.1364057236512032
民庆家园,商务住宅,住宅区,民京路658弄之1-21号,121.519574,31.321106,上海市,上海市,杨浦区,0.40349544380227037,0.21268427650464958,0.3365072576726081,0.25382330477218845,0.387947186434185,0.5310624425508534,0.285002984983807,0.2634105379436973
民庆家园1期,商务住宅,其他,闸殷路与民庆路交叉口东120米,121.518993,31.320342,上海市,上海市,杨浦区,0.41967366105749415,0.2229092225117536,0.3460418320936334,0.26709222200739474,0.39426667812381366,0.5121753110898947,0.2943370550549774,0.2778438599997205
民庆家园2期,商务住宅,其他,民京路与宁城路交叉口西120米,121.520111,31.321481,上海市,上海市,杨浦区,0.3957225922624171,0.20847208995436625,0.3352741265449234,0.2514828697382753,0.38718056326989386,0.551829994589009,0.2838049364777253,0.2583553291447612
杨浦都市工业园区市京分园,商务住宅,产业园区,民京路781号,121.52026,31.319844,上海市,上海市,杨浦区,0.43000428231274573,0.23237054075171412,0.37457453580734074,0.30389963441470946,0.4063128652600653,0.5743258848980236,0.3157563083928856,0.29687590390476915
杨浦都市工业园区市京分园1栋,商务住宅,产业园区,民京路781号,121.5206,31.320467,上海市,上海市,杨浦区,0.41681835631741054,0.22418042188470985,0.36615084237166806,0.2900977814076499,0.39940536426810513,0.5845775276140469,0.3075831268455791,0.2845408168454419
加州·水郡,商务住宅,住宅区,国秀路599弄1-15号,121.512057,31.33187,上海市,上海市,杨浦区,0.210356613309472,0.056607766473950036,0.08048908313566887,0.09048313056493727,0.1879276622335022,0.24959882463354915,0.06634116053865811,0.08056059380797546
中建大公馆,商务住宅,别墅,政和路538弄1-230号,121.514926,31.330728,上海市,上海市,杨浦区,0.23348060245217048,0.07684777020735511,0.1184948484211405,0.10614250140305251,0.23047150253708243,0.30727781612590727,0.08604935934520089,0.09612890201682754
新江湾城·首府,商务住宅,别墅,国秀路88弄1-103号,121.516726,31.33332,上海市,上海市,杨浦区,0.21081646289183,0.061143428596317044,0.12066386381214533,0.10107639632875257,0.19887055732329675,0.30319116059773266,0.07466402757156464,0.07554163466316499
中建府邸,商务住宅,住宅区,国秀路与政和路交叉口东南220米,121.514932,31.330729,上海市,上海市,杨浦区,0.23350108497758587,0.07686653087055109,0.11856011695735179,0.1061651229245591,0.23051743617908538,0.3073739983844563,0.08608125360094686,0.09613912580039112
嘉誉云景,商务住宅,写字楼,殷行路与政和路交汇处,121.511365,31.329978,上海市,上海市,杨浦区,0.21924671499190646,0.06749478916030224,0.08596919688883158,0.0942624165602584,0.1994422827168044,0.24772154053528883,0.07359633523007911,0.09008408833844002
尚锦嘉愿,商务住宅,住宅区,江湾城路1199弄1-21号,121.519406,31.334899,上海市,上海市,杨浦区,0.1874595716789215,0.05302799270060199,0.13724038697740767,0.09682099224701256,0.1750465494922506,0.2980106951875437,0.07163180971706348,0.06051314391878097
新江湾人才公寓,商务住宅,住宅区,国浩路88号附近,121.519466,31.334888,上海市,上海市,杨浦区,0.1875215042082779,0.05323743369656999,0.13801648477518358,0.09705803179590197,0.17552574918850572,0.2987063143813991,0.07211956611256036,0.06068611655384213
首府,商务住宅,住宅区,国秀路与江湾城路交叉口西北140米,121.51675,31.333287,上海市,上海市,杨浦区,0.21124838330868614,0.06151264859482509,0.12121782643270994,0.10135608834494243,0.19966719020451856,0.3040241754138588,0.0751184316475371,0.07590891639906912
国安社区,商务住宅,住宅区,国浩路179弄1-17号新江湾生活广场F1,121.517183,31.33546,上海市,上海市,杨浦区,0.18302475793050219,0.044068202687042465,0.10767382060335028,0.08783480555380638,0.15601035745421674,0.26858567814242384,0.055226812191830385,0.054170285229767495
书香门第(新江湾城馆),商务住宅,其他,国浩路179弄195号,121.517154,31.335464,上海市,上海市,杨浦区,0.18301580788037794,0.04398061373519705,0.10734611816011186,0.08776753951995168,0.15588535102224005,0.268269816085364,0.055094576936083696,0.054146055939911814
江湾国际社区睦邻中心,商务住宅,其他,政和路与国浩路交叉口北220米,121.516852,31.337667,上海市,上海市,杨浦区,0.15423396310669607,0.027870178230488606,0.08850627324198242,0.0723302717789284,0.11267586991850699,0.21849216686741044,0.035102178287900895,0.03538366649080407
寓享十青年社区,商务住宅,其他,政和路979号二楼,121.516583,31.337244,上海市,上海市,杨浦区,0.1605668874801347,0.03019051777550141,0.0888836444555522,0.07499980041625189,0.12106348528588888,0.22635198201709197,0.038127288758278255,0.03910250790367874
江湾国际公寓,商务住宅,住宅区,政和路999弄1-80号,121.515165,31.337995,上海市,上海市,杨浦区,0.15367767239001937,0.025461538032951734,0.07466907188162275,0.07068517993052455,0.11315520624163757,0.19983933147900235,0.03370607187317633,0.03676867625632143
橡树湾,商务住宅,住宅区,新江湾城国浩路88号,121.520178,31.338306,上海市,上海市,杨浦区,0.13390900378743908,0.025722447277966236,0.1115507417055564,0.06939350343839151,0.0954706399841924,0.21285850551558658,0.03678006458448845,0.02679380307450468
华润·新江湾九里,商务住宅,住宅区,国帆路(地铁站)1号口步行635米,121.517595,31.339184,上海市,上海市,杨浦区,0.13044600838341872,0.019977849420663094,0.08421548716257127,0.06298940783388586,0.083683028612109,0.18600485900331823,0.02456844922502231,0.022630419001078667
嘉誉湾,商务住宅,住宅区,淞沪路1888号(近五角场),121.509146,31.332342,上海市,上海市,杨浦区,0.1923356354319434,0.04506412061494796,0.05441715536148197,0.077607741037575,0.16328676189561753,0.19565226370461045,0.061102277335067325,0.07182953175548752
嘉誉国际广场,商务住宅,写字楼,殷行路1286号,121.508359,31.329903,上海市,上海市,杨浦区,0.19862965752713022,0.05617806043502066,0.05919042640397952,0.08265659534310334,0.16654187471957577,0.1920631522317618,0.06607169720929053,0.07975798756775151
GU HOTEL,酒店住宿,宾馆酒店,国权北路新江湾尚景园,121.501229,31.335782,上海市,上海市,杨浦区,0.10457742729121787,0.009251436737458592,0.00489786454931677,0.031180429020829216,0.08006670026692626,0.04349436732539346,0.046989650539060124,0.025955103473250477
枫憬酒店(五角场新江湾城店),酒店住宿,宾馆酒店,殷行路1488号,121.505141,31.329214,上海市,上海市,杨浦区,0.17426761745026306,0.04705597356142921,0.03946223980228597,0.07375323365286889,0.13914448128914816,0.13505785338987195,0.06263754452074971,0.06983965269084834
新江湾·戎辉苑,商务住宅,住宅区,殷行路1628弄,121.503564,31.329849,上海市,上海市,杨浦区,0.15314592854303494,0.036848015484852316,0.026329536899400832,0.06340710414721094,0.12420192989192634,0.10637347757291006,0.056992810669637274,0.05812232784588528
上海非主流建筑师度假别墅,酒店住宿,其他,国权北1470号,121.501162,31.335365,上海市,上海市,杨浦区,0.1057642754631187,0.00985535205695483,0.005105670094969538,0.031659420451463215,0.08140507598676755,0.04512376191562962,0.04731098347297804,0.026741779867441893
集悠精选酒店(暂停营业),酒店住宿,宾馆酒店,国权北路1480号国学路路口,121.501351,31.336238,上海市,上海市,杨浦区,0.10362014437599276,0.008754235876210294,0.004836049710492125,0.030907580207026587,0.078868285508029,0.04219847798923735,0.04662488264520899,0.025288682022292487
宿适轻奢酒店(上海五角场复旦大学店),酒店住宿,其他,国权北路1480号,121.501385,31.336225,上海市,上海市,杨浦区,0.10407609828800075,0.008863319413381131,0.004956036366647326,0.031121361870369586,0.07925731552860443,0.0427811522830474,0.046738803902917785,0.02552301392363109
10号线新江湾城(6号口),商务住宅,写字楼,[],121.50702,31.32955,上海市,上海市,杨浦区,0.1899869880232542,0.053001631124784385,0.05079472944006529,0.07916659375717573,0.15528656812435845,0.16851353753480983,0.06499963579088444,0.07650073268297862
璞境服务式健康公寓,酒店住宿,其他,新江湾城殷行路1270号,121.510825,31.329466,上海市,上海市,杨浦区,0.2195129997397694,0.06848490435858871,0.08469860844933837,0.09428504481165444,0.19708619134061703,0.23877914838847963,0.07476072077519293,0.09162590229197368
光辉城市(上海分公司),商务住宅,其他,殷行路嘉誉国际02栋404室,121.508423,31.329579,上海市,上海市,杨浦区,0.2011758984374677,0.05803658741835035,0.061962828876547214,0.08439436470805156,0.16836568572342278,0.19407056379985915,0.06752570455640747,0.0818033777987454
嘉誉湾3期,商务住宅,其他,淞沪路1888弄1-24号,121.50913,31.332133,上海市,上海市,杨浦区,0.19317038460476144,0.04621253454280939,0.05496697622802284,0.07801230544963429,0.16410994391927655,0.19671777088728334,0.06139538688054655,0.07254247115675418
湾谷科技园,商务住宅,产业园区,国权北路1688弄,121.503381,31.341161,上海市,上海市,杨浦区,0.0828693634457511,0.0032391527749327464,0.0060247879461154275,0.023900027503247306,0.052687679050372666,0.026470301186299193,0.03489995407710116,0.011445656297807144
莱蒙国际中心,商务住宅,写字楼,国权北路1688号,121.501062,31.339367,上海市,上海市,杨浦区,0.07938777425121686,0.0028911139329432377,0.0012514670553001568,0.020471858689025287,0.05308225600977285,0.01708255391504613,0.03828048608123358,0.011990138963042777
融信世纪江湾,商务住宅,住宅区,恒耀路66弄,121.509664,31.343279,上海市,上海市,杨浦区,0.08609830615151888,0.00414951862326833,0.024048695237316987,0.03671868241721891,0.04611330319767261,0.05570797348305909,0.018861740507249324,0.0074595728282155545
区块链产业大厦,商务住宅,写字楼,国权北路1688弄C7栋,121.501009,31.339581,上海市,上海市,杨浦区,0.07723521815493943,0.002379062015070285,0.0009817574997754521,0.019550990664310944,0.05073136960234974,0.01523260597523995,0.03753201893707939,0.010822086564504492
湾谷驿站,酒店住宿,其他,淞行路与吉江路交叉口东120米,121.503251,31.341643,上海市,上海市,杨浦区,0.07682802808000831,0.00183709271946587,0.004889793519134932,0.021192100480487544,0.04592044455512366,0.02088373457207771,0.03258116050624322,0.00803741113159003
龙湖冠寓(上海新江湾城店),酒店住宿,其他,恒耀路66弄92号、105号,121.509156,31.344315,上海市,上海市,杨浦区,0.07076206903394958,0.0006441372202380444,0.01814089947757926,0.02937349293776204,0.03102687533561518,0.036854482282751524,0.013934461664292035,0.0
莱蒙国际中心C座,商务住宅,写字楼,国权北路1688弄36号,121.501078,31.339386,上海市,上海市,杨浦区,0.0793973026879199,0.002887536664966458,0.001278024167235424,0.020478565068166373,0.053045285662656705,0.01711835416751776,0.038255090286216195,0.011977054574780226
莱蒙国际中心招租,商务住宅,其他,国帆路与国权北路交叉口西120米,121.505282,31.343473,上海市,上海市,杨浦区,0.06822157664815157,0.0,0.007370386446264978,0.021444156707680347,0.033691698878940884,0.020312986456456458,0.02367273939527329,0.0016962500979643004
江湾名邸(公寓住宅),商务住宅,其他,恒耀路66弄,121.508379,31.34368,上海市,上海市,杨浦区,0.07776771044674925,0.0020796984874030234,0.017904898140461593,0.03106896051782052,0.039203175100671894,0.04093709885775424,0.019060525269661583,0.004290594204415511
湾谷科技园A1座,商务住宅,其他,国权北路与国帆路交叉口西南100米,121.505614,31.342606,上海市,上海市,杨浦区,0.08056697716216601,0.0026313150396835207,0.010759755143250165,0.02683480181377331,0.046631197618961666,0.032786138204243816,0.028323198840050683,0.008108485413864469
湾谷科技园C2座,商务住宅,其他,[],121.50299,31.339497,上海市,上海市,杨浦区,0.09611692235713518,0.006425218121776515,0.00688051793771783,0.029054121730769773,0.06791650031065943,0.037637076354985866,0.04116162468845788,0.019549108399005845
湾谷科技园C7座,商务住宅,产业园区,国权北路1688弄36号,121.501112,31.339422,上海市,上海市,杨浦区,0.07944865357642007,0.00288776065428196,0.0013373869826111017,0.02050639016807112,0.05300492666965815,0.017220935047953093,0.03821278863595436,0.011966923290436454
湾谷科技园B7栋,商务住宅,其他,国权北路一六八八弄53号,121.502467,31.341221,上海市,上海市,杨浦区,0.07523338551914284,0.001579138010620547,0.0032139971556012247,0.01964637728553407,0.04536937013932426,0.017218965177739572,0.03369205294041481,0.007992313839915314
湾谷科技园C6座,商务住宅,写字楼,淞行路与吉江路交叉口东南120米,121.502461,31.340534,上海市,上海市,杨浦区,0.08193362752156459,0.003145950401319968,0.004036968090735789,0.02241969092449561,0.052924775578043426,0.022620636891751627,0.03653373905535196,0.011874583791039334
湾谷科技园B2座,商务住宅,产业园区,[],121.5043,31.341032,上海市,上海市,杨浦区,0.09092482356092685,0.005033217912632925,0.00929833812298014,0.028704375782861877,0.06049988472261052,0.03752127705797119,0.03612214258475463,0.015189014968632106
湾谷科技园A5座,商务住宅,其他,淞行路与国帆路交叉口南160米,121.504684,31.342969,上海市,上海市,杨浦区,0.07115599470950208,0.0005876186558887275,0.006738270513018337,0.021392117003098586,0.03767544218893768,0.020826165372586785,0.026585893562597298,0.0036481161990306195
湾谷科技园A6座,商务住宅,其他,淞行路与吉江路交叉口东北200米,121.503847,31.342292,上海市,上海市,杨浦区,0.07388222369601817,0.001145024858872542,0.005577391377097909,0.020913333715715864,0.041788408584236686,0.020367556611758878,0.02988289606571095,0.005775274286259922
新起点公寓隆昌路店,酒店住宿,宾馆酒店,杨树浦路2525号,121.551738,31.268126,上海市,上海市,杨浦区,0.31780190293187044,0.18213742902890676,0.5279479709168825,0.3413185736146127,0.17586150790244456,0.4601322468578094,0.28117730405275054,0.25754588482728386
杨树浦驿站,酒店住宿,其他,上海国际时尚中心南,121.556653,31.266955,上海市,上海市,杨浦区,0.17085240805161878,0.09738331525399115,0.3451844930442741,0.1821207196301322,0.06973794940665179,0.2693446819487401,0.12750393046918732,0.1381303933827345
杨树浦路2747弄小区,商务住宅,住宅区,杨树浦路与贵阳路交叉口西南40米,121.555262,31.270339,上海市,上海市,杨浦区,0.26125522974472265,0.14143228025980534,0.45239359290982417,0.27056630766767864,0.1349392110456564,0.3962111315103852,0.20612943264059658,0.216865489047712
苹果公寓(海州路),商务住宅,住宅区,海州路310号,121.550939,31.270419,上海市,上海市,杨浦区,0.38626426361237354,0.20823703383989106,0.6020404305353529,0.3871684539549087,0.23475223438297838,0.5360578675913482,0.33980168496335394,0.31203564741887985
隆昌路88弄小区,商务住宅,住宅区,隆昌路88弄2-12号,121.55049,31.268881,上海市,上海市,杨浦区,0.3695549407143118,0.20684935292017922,0.5862283723316695,0.3856983436510317,0.2164692994786691,0.5157310674999728,0.3347424096415478,0.2985697561320144
隆昌大楼,商务住宅,商住两用楼宇,隆昌路60-62,121.551088,31.268638,上海市,上海市,杨浦区,0.3472416082195595,0.19572047646918458,0.5616791805617115,0.36649776930850947,0.19871926698272283,0.49275448148028433,0.31092215042123766,0.2811350201141786
杨浦都市食品园区,商务住宅,产业园区,波阳路290号,121.553803,31.272669,上海市,上海市,杨浦区,0.336549616734192,0.16929429739999144,0.5233603879426839,0.32397709544066217,0.1977436907219446,0.4792492749289106,0.2660565555167332,0.2721051319620308
福昌里,商务住宅,住宅区,杨树浦路2623弄1-33号,121.5533,31.269064,上海市,上海市,杨浦区,0.29346147478652834,0.1645702062160006,0.4975917359775794,0.31110109540842734,0.15866516266146127,0.4346911048231224,0.24792179363821035,0.24084699081063743
丹江新苑,商务住宅,住宅区,齐齐哈尔路27号附近,121.53167,31.25719,上海市,上海市,杨浦区,0.5904342394530229,0.16886618886373142,0.4315068475218521,0.4873250738374301,0.19676704873444753,0.58252602382221,0.3523599264908853,0.372896161550777
凯达苑,商务住宅,住宅区,江浦路160弄,121.531598,31.25456,上海市,上海市,杨浦区,0.46680374847266887,0.12512089697381376,0.3144906907174209,0.38993127010688544,0.14391211956513378,0.4522815265135626,0.2614620024896704,0.2852184424249611
龙江路300弄小区,商务住宅,住宅区,龙江路300弄1-21号,121.530787,31.25664,上海市,上海市,杨浦区,0.5743805225748498,0.16040719351977445,0.4108797008513133,0.46668897831319484,0.1913174763296192,0.5673152912161281,0.33033970186474737,0.36008832551384945
嘉意酒店,酒店住宿,宾馆酒店,齐齐哈尔路226号,121.531789,31.256636,上海市,上海市,杨浦区,0.5642869881204333,0.15947270822190887,0.40588990905454114,0.46788698998142475,0.18516449367700555,0.5547729199242328,0.3330767564049081,0.35417724957064556
圣骊河宾馆,酒店住宿,宾馆酒店,齐齐哈尔路与龙江路交叉口东北50米,121.531236,31.25753,上海市,上海市,杨浦区,0.6098054900765385,0.17496294358581807,0.44929990030880357,0.498297581849165,0.20583612252024155,0.6035831386726093,0.3632948190565107,0.3864041423513916
丹江商务楼,商务住宅,写字楼,龙江路370-372,121.531575,31.257318,上海市,上海市,杨浦区,0.5970702920107027,0.17109905041317056,0.43779076823871405,0.4916444341847729,0.19979852817368107,0.5896758247433201,0.356675275051351,0.37759398213959355
广杭苑杭州路66弄,商务住宅,住宅区,[],121.535373,31.257893,上海市,上海市,杨浦区,0.5537613405112808,0.17015870677741393,0.425441135863897,0.4906891582134592,0.18692736390196132,0.5487263456657477,0.36792041715517204,0.3543801476600623
阳光城滨江悦,商务住宅,住宅区,[],121.533388,31.255736,上海市,上海市,杨浦区,0.4999479362018148,0.1406701340506858,0.35201048327167894,0.43333963934026337,0.15573639183344123,0.4860918868970963,0.3007971544244003,0.310262199245097
上海骈骈公寓,酒店住宿,其他,齐齐哈尔路与福宁路交叉口北100米,121.533682,31.255745,上海市,上海市,杨浦区,0.4953856801132,0.13991755217452254,0.3494104316637634,0.432690923444403,0.15367159295073118,0.4815692594107696,0.30026718190474494,0.30737202700219285
杭州路87弄小区,商务住宅,住宅区,杭州路87弄,121.534862,31.258806,上海市,上海市,杨浦区,0.600538068018513,0.18747060774844682,0.47291886418377915,0.5208451035373104,0.2107062133193409,0.5974200765734422,0.40359300784524604,0.38911009647374584
福宁路27弄小区,商务住宅,住宅区,福宁路27弄1-11号,121.531684,31.25453,上海市,上海市,杨浦区,0.4644488621267278,0.12439373266067279,0.31258184178772525,0.3889465263107992,0.1426999768223275,0.44965092911080906,0.26052359544016884,0.2836083737263061
圣骊河滨苑,商务住宅,住宅区,龙江路388弄,121.531861,31.257531,上海市,上海市,杨浦区,0.6029117208082552,0.17437284979941975,0.44567936297355865,0.4988643204715675,0.20231041997800123,0.595436040309615,0.36483837462245533,0.38240154171906393
齐齐哈尔路205弄小区,商务住宅,住宅区,丹阳路与齐齐哈尔路交叉口西80米,121.531372,31.256098,上海市,上海市,杨浦区,0.5437390724710955,0.15127644486343408,0.3839010589305896,0.44795555556463346,0.1770564198552237,0.5338172661762072,0.3134104007068158,0.33910385436037827
银龙新村,商务住宅,住宅区,龙江路与齐齐哈尔路交叉口南80米,121.530802,31.25664,上海市,上海市,杨浦区,0.5742542121143789,0.160398797677333,0.41082508272801177,0.4667289155882203,0.1912293355607605,0.5671508619086422,0.33039455277348434,0.3600180418585273
福宁路63弄小区,商务住宅,住宅区,福宁路63弄,121.53224,31.254618,上海市,上海市,杨浦区,0.4625135354309406,0.12451060813735303,0.3122432231279385,0.3931237129949095,0.1406587856006433,0.44692198465713445,0.2636238736770752,0.2826288250907149
江浦路160弄14号,商务住宅,其他,江浦路与福宁路交叉口北150米,121.531642,31.254579,上海市,上海市,杨浦区,0.4672838260058418,0.12534833044891489,0.3149864112645538,0.39078306108842725,0.1440096043321745,0.4527125054668174,0.2621374561597371,0.2855889087316738
江浦路160弄12号,商务住宅,其他,丹阳路(地铁站)1号口步行152米,121.531805,31.254715,上海市,上海市,杨浦区,0.47224344236301297,0.12732489588552062,0.3197075110565023,0.3964477490242723,0.14573836772632787,0.4576398379987684,0.2668304823989811,0.28919817975436135
安德里,商务住宅,住宅区,杨树浦路1615弄1-34号,121.539559,31.257854,上海市,上海市,杨浦区,0.43497275870476726,0.14559600603826275,0.35664263437735355,0.4279293529831591,0.14547933240120353,0.4547761686179007,0.31186723327754184,0.27523416338863127
崇业小区(杨树浦路),商务住宅,住宅区,杨树浦路1455弄之1-31号,121.536896,31.256145,上海市,上海市,杨浦区,0.44381728598459785,0.13225963484075695,0.32269750207818165,0.41989768490365337,0.134506434528182,0.4388003512121876,0.2901559682051994,0.27413144482208407
东华里,商务住宅,住宅区,杨树浦路1581弄,121.539002,31.257092,上海市,上海市,杨浦区,0.42361791896271317,0.13554012392713274,0.3299404993179762,0.4168129621800086,0.13418584599423794,0.4353693538764437,0.2942512671018936,0.26391316175031426
广杭苑,商务住宅,住宅区,大桥街道眉州路135弄,121.536015,31.257807,上海市,上海市,杨浦区,0.5344005625599237,0.165495480066944,0.41165974816067746,0.4816332643349735,0.17976379913805368,0.5313702525959999,0.3591682853177244,0.34155572161870007
申润江涛苑,商务住宅,住宅区,广州路55弄之1-18号,121.536043,31.256793,上海市,上海市,杨浦区,0.49239079436523947,0.14823198077157262,0.36498002445671307,0.4511073657732249,0.15686047753264254,0.4853192380562168,0.3224249049614465,0.3091753201806832
眉州路100弄小区,商务住宅,住宅区,眉州路100弄,121.538628,31.258376,上海市,上海市,杨浦区,0.48227137256652375,0.16066454587476017,0.3964844440522232,0.4598332371715311,0.1678937418795704,0.49905594261316394,0.34586947658344247,0.309775547136602
林峰公寓,商务住宅,其他,眉州路120号,121.537534,31.25838,上海市,上海市,杨浦区,0.5148628188516743,0.1671340596231719,0.4132464566259032,0.47736595744721727,0.17885661985942602,0.5239347136386641,0.3619045017913638,0.3315514198741649
杨树浦路1629弄小区,商务住宅,住宅区,杨树浦路1629弄,121.539717,31.257638,上海市,上海市,杨浦区,0.4222609319745454,0.14074509386523035,0.3437623975712889,0.4184746490340568,0.1387671281984444,0.4416988767334131,0.3015034025579458,0.2656101115115404
眉州路110弄小区,商务住宅,住宅区,眉州路110弄,121.537993,31.25846,上海市,上海市,杨浦区,0.5043309374891038,0.16597766663035712,0.4099903347944952,0.4724961930492472,0.17635889278193043,0.5172262605494858,0.3583961135754879,0.324985232982972
眉州路50弄小区,商务住宅,住宅区,眉州路与广州路交叉口东20米,121.538544,31.25749,上海市,上海市,杨浦区,0.452198846195684,0.14536331657940216,0.35590337771811903,0.437004564424457,0.1481199212609826,0.4631614159754055,0.3154803610552722,0.2850180207744776
眉州路70弄小区,商务住宅,住宅区,广州路与眉州路交叉口东北20米,121.538379,31.25778,上海市,上海市,杨浦区,0.46798921299135654,0.15150330113069987,0.3721968489090851,0.448081402737402,0.15652609499082887,0.479322998387565,0.328354273629519,0.2970323437753108
上海廷庭旅馆,酒店住宿,旅馆招待所,杭州路94号,121.535843,31.258653,上海市,上海市,杨浦区,0.5710128179850571,0.1807462193913702,0.4522533389684805,0.5064248320846216,0.20002776705068256,0.5711225736596506,0.39076235760791905,0.36976665435065614
眉州路70弄2号小区,商务住宅,住宅区,眉州路70弄2号,121.538289,31.257706,上海市,上海市,杨浦区,0.46787255991155147,0.15074471742837348,0.370144801657641,0.44754102141402957,0.1557748783470398,0.47820578219157533,0.3270694293285598,0.2966051765162863
广州路55弄3号,商务住宅,其他,广州路55弄3幢3-6号,121.536654,31.256678,上海市,上海市,杨浦区,0.47230942055252806,0.14277933741325094,0.35002484066621925,0.4404843781095719,0.1486102714736354,0.46780834651205977,0.3118023243041527,0.29521616149468716
上海昶盛咖啡有限公司51-53号职工宿舍,商务住宅,宿舍,渭南路32附近,121.538979,31.25886,上海市,上海市,杨浦区,0.488421382557514,0.16748771225324574,0.4144628573604593,0.4663307134138557,0.17524987635517003,0.5113454100427943,0.35776346320855296,0.3167608083211342
广杭苑眉州路135弄,商务住宅,住宅区,眉州路135弄11-14号,121.537185,31.257822,上海市,上海市,杨浦区,0.5038360036338135,0.1592708822294991,0.39308225147318465,0.46754972626894475,0.16935845338814917,0.5074925902541897,0.3465574367979976,0.32139748129101176
久玖住房,酒店住宿,旅馆招待所,杭州路741-2号,121.54412,31.26642,上海市,上海市,杨浦区,0.5205021583272101,0.2727548792805275,0.68059884147949,0.5369205741905282,0.29187330183885724,0.6235847509270421,0.5055110608226844,0.39505822808400454
天马大厦,商务住宅,商住两用楼宇,平凉路1700、1708,121.541817,31.267166,上海市,上海市,杨浦区,0.6061105771616225,0.29973148202316163,0.7389995105629386,0.5985079050817107,0.33459282022355286,0.6827342196361681,0.5804154574185432,0.45576012965248647
杨家宅小区,商务住宅,住宅区,杭州路847号,121.544668,31.267305,上海市,上海市,杨浦区,0.5209416752801012,0.2788015177544392,0.6983492527992595,0.5328439114377537,0.3057106358959507,0.6316293324690271,0.5095485161593922,0.4010587412687969
金凤大楼,商务住宅,住宅区,平凉路1550弄,121.540601,31.265773,上海市,上海市,杨浦区,0.6171162571929646,0.28147693559888753,0.7068144520249421,0.6082679794877254,0.3072556605215441,0.6738328353777061,0.5684422126831721,0.45306162257473753
罗亚国际大厦,商务住宅,写字楼,平凉路1700号,121.541483,31.266801,上海市,上海市,杨浦区,0.6095599729791266,0.29564256690374985,0.7321615058245913,0.6025394735157696,0.32762904054127945,0.6808085509535127,0.578992635613786,0.4556362842841581
平凉路1695弄,商务住宅,住宅区,平凉路与临青路交叉口东北140米,121.541196,31.267443,上海市,上海市,杨浦区,0.6281614352324283,0.306558354791723,0.7529217228757992,0.6128775740987225,0.34546928963843054,0.6960197198151677,0.5982668560127556,0.4717084274486891
平凉路1790弄小区,商务住宅,住宅区,平凉路与宁武路交叉口西南140米,121.543015,31.268119,上海市,上海市,杨浦区,0.5869952273018563,0.30431517962688565,0.747164234457865,0.5775550448142446,0.3468326238627412,0.6794958258664227,0.5704660924775903,0.4484992697759537
院东大楼(东楼),商务住宅,住宅区,平凉路1790号,121.542987,31.268079,上海市,上海市,杨浦区,0.5871752653183563,0.30409425417385083,0.746677390666491,0.5780150816320239,0.34619687446420244,0.6793186790003773,0.5705269857511042,0.4484258749991588
世园租房,酒店住宿,其他,临青路上海市杨浦区建设小学西侧约210米,121.541823,31.265413,上海市,上海市,杨浦区,0.5732350875436618,0.27182546791321643,0.6796967370353666,0.5773565482125389,0.28962099283155657,0.6456718987913487,0.5347388352748713,0.42154217352518086
海友酒店(上海杨浦大桥店),酒店住宿,经济型连锁酒店,临青路277号(临青路与平凉路交叉口),121.540945,31.265848,上海市,上海市,杨浦区,0.6083986508111375,0.2819028061416696,0.7062028881600446,0.6026352044011591,0.3070304034342085,0.6700202322200516,0.564519736251539,0.447950161477499
上纺物业·鑫联园区B6,商务住宅,产业园区,临青路与杭州路交叉口东北150米,121.543455,31.265414,上海市,上海市,杨浦区,0.5206676673652674,0.26278916741641206,0.6547499499587272,0.5390464883702175,0.2741615684953135,0.6133621376918428,0.49614648018093194,0.38737434991213016
上纺物业·鑫联园区B2,商务住宅,产业园区,杭州路705-1号附近,121.543572,31.265528,上海市,上海市,杨浦区,0.5193125879824558,0.26379147428607985,0.6572127766750623,0.5379797270925034,0.2758068777429659,0.6137305999120963,0.49640995840425123,0.3874302149481041
上纺物业·鑫联园区A7,商务住宅,产业园区,杭州路与临青路交叉口东100米,121.543345,31.265006,上海市,上海市,杨浦区,0.5153311175387106,0.2567334331604651,0.6397806002250354,0.5345389478280369,0.26480498109095957,0.6051485949267433,0.4865191400899883,0.3803579301332452
上纺物业·鑫联园区A8,商务住宅,产业园区,临青路与杭州路交叉口东100米,121.543244,31.265232,上海市,上海市,杨浦区,0.5236148000787284,0.2612245802777321,0.6510492427439888,0.5411432228019326,0.2717218182129326,0.6132498732025149,0.49612584781242075,0.3877613142637969
上纺物业·鑫联园区C1,商务住宅,产业园区,周家牌路301号,121.544134,31.264585,上海市,上海市,杨浦区,0.4794942983441547,0.24374689552189613,0.6063418023242357,0.5056150666492476,0.24517983612506272,0.5750452290832502,0.45170590478443096,0.3528286785177328
上纺物业·鑫联园区C6,商务住宅,产业园区,周家牌路301号附近,121.543919,31.265071,上海市,上海市,杨浦区,0.4978028052212209,0.2536520138805559,0.6317477353847015,0.5210568197026113,0.2598789274726655,0.5939007628157305,0.473095791866006,0.36930720043701276
上纺物业·鑫联园区C3,商务住宅,产业园区,杨树浦路2193附近,121.544264,31.264768,上海市,上海市,杨浦区,0.47937367032639844,0.24583481618662642,0.6116951552118625,0.5058869882866551,0.24805024406396753,0.5770931935880972,0.4538378215971257,0.3543469296885057
上纺物业·鑫凤园区A6,商务住宅,产业园区,临青路与杭州路交叉口东50米,121.542665,31.264978,上海市,上海市,杨浦区,0.5369858377708704,0.26041719997029733,0.6499352066413382,0.55047459637121,0.27102879980585787,0.6188425687617326,0.5024869868439602,0.39429446617504477
上纺物业·鑫联园区B1,商务住宅,产业园区,周家牌路309号附近,121.543752,31.265217,上海市,上海市,杨浦区,0.5065991478116105,0.25736143999501293,0.6411155793284143,0.5280894041432788,0.2656410733521272,0.6016812030921315,0.482215228683432,0.3764082111052571
上纺物业·鑫联园区C5,商务住宅,产业园区,周家牌路313号附近,121.543834,31.264855,上海市,上海市,杨浦区,0.49574897749443936,0.25067525165487453,0.6242010450687757,0.5191369753725509,0.25545193895524665,0.5899427150296155,0.46867945002180117,0.36605819675275164
上纺物业·鑫凤园区A4,商务住宅,产业园区,临青路188-1号附近,121.542853,31.264851,上海市,上海市,杨浦区,0.5280388285850861,0.25715733339951324,0.6416081519576156,0.5435702854481641,0.2659864151675623,0.6116500006293967,0.4939395436798714,0.3873555209178182
舜君企业园,商务住宅,产业园区,宁武路269-9号,121.544555,31.268077,上海市,上海市,杨浦区,0.5391898539754487,0.288539032273525,0.7209027359221767,0.5417122413682797,0.3256764402487329,0.6494617203195655,0.5271581180557663,0.41703204480413947
上纺物业·鑫联园区A15,商务住宅,产业园区,杭州路附近,121.543828,31.265133,上海市,上海市,杨浦区,0.5022133351362692,0.2553895505646665,0.6361445715200642,0.524594172709642,0.2625736480374158,0.5976975707804095,0.4775427389860646,0.372776350703736
上纺物业·鑫联园区A16,商务住宅,产业园区,周家牌路301号,121.543164,31.26544,上海市,上海市,杨浦区,0.5307057836898923,0.26520648500908034,0.6608830505735391,0.5466944250061825,0.27796537514955566,0.6201855921317879,0.5044474013165029,0.39417853486995097
上纺物业·鑫联园区A13,商务住宅,产业园区,周家牌路301号附近,121.543897,31.265132,上海市,上海市,杨浦区,0.4999046859943426,0.25483932936632814,0.6347562210691053,0.5227642024438173,0.261715880608297,0.5960700547684641,0.47559661667243547,0.37123154872682623
汇智·鑫联园区,商务住宅,产业园区,临青路188号,121.542755,31.264822,上海市,上海市,杨浦区,0.530607756751881,0.25722312403041825,0.6419562479380005,0.5453574181915678,0.2662135063227205,0.6129632616849338,0.4953706122361735,0.38878373311626485
社区文化活动中心,商务住宅,社区中心,平凉路1730号,121.541911,31.267406,上海市,上海市,杨浦区,0.6074403270457133,0.3027365322190765,0.7444013724043862,0.5981662209327389,0.33987018186694323,0.6855725814441127,0.5833812860890463,0.45803851983928834
院东大楼-西楼,商务住宅,住宅区,平凉路1740号,121.542391,31.267727,上海市,上海市,杨浦区,0.598886137702091,0.304253554216814,0.7466419583720896,0.5896026716529602,0.34370653403765866,0.68347066415187,0.5788624314289501,0.4542647991476035
上纺物业·鑫联园区区A5,商务住宅,产业园区,周家牌路301号附近,121.54371,31.264871,上海市,上海市,杨浦区,0.5002337411583859,0.25186111197428573,0.6272916947740793,0.5226970013232197,0.25727263654800664,0.5932626987120524,0.4725692678308136,0.3691854260413019
上纺物业·鑫联园区,商务住宅,产业园区,周家牌路301号,121.544183,31.264991,上海市,上海市,杨浦区,0.4872039133154093,0.25022916050689675,0.6230056266652397,0.5124878165805558,0.2546234489603539,0.585377759105989,0.46314922594041547,0.3615283326703791
院东大楼,商务住宅,写字楼,平凉路1740号,121.542894,31.267894,上海市,上海市,杨浦区,0.5868916273873042,0.30266802420873523,0.7437480708510614,0.5792389009660546,0.34281256263186916,0.6777974065841027,0.5697733442878214,0.4473245752265219
临青坊,商务住宅,住宅区,临青路126弄1-20号,121.543791,31.264409,上海市,上海市,杨浦区,0.4869021288328624,0.24327830647906684,0.605443867259905,0.510940427396606,0.24496202914284015,0.5781869673107728,0.45548148889771445,0.3562408219756922
荣鑫公寓,商务住宅,住宅区,海州路33弄之1-12号,121.547197,31.267105,上海市,上海市,杨浦区,0.4337244451619697,0.24416930142646515,0.6341488387729968,0.4609165416167968,0.25332793592892006,0.5642967169904526,0.4203242043936199,0.3406891045906334
鼎隆公寓,商务住宅,住宅区,杭州路895号,121.545999,31.268104,上海市,上海市,杨浦区,0.4933378993391563,0.2704170425759362,0.6919462024030283,0.504859180943072,0.3004557466048578,0.617875252770261,0.4810773040478376,0.38679693963096506
上海滨江创意产业园,商务住宅,产业园区,杨树浦路2218号,121.547678,31.264378,上海市,上海市,杨浦区,0.3554600773780752,0.20155791860085182,0.5146803174898935,0.39642000009636724,0.18354883764714952,0.4727502847567126,0.33290346503977697,0.26594495771421534
杨树浦路2181弄,商务住宅,住宅区,杨树浦路与宁武路交叉口西南160米,121.546904,31.26444,上海市,上海市,杨浦区,0.38258569749879395,0.2128215420137968,0.536853557386169,0.42262205058346725,0.1989049972044605,0.4967947899886646,0.36069505354342374,0.2854679410508407
杭州路906-918号小区,商务住宅,住宅区,杭州路906-918号,121.547057,31.268168,上海市,上海市,杨浦区,0.46046770023807987,0.2558360848340381,0.6681292474406487,0.47642121649621116,0.2799868961590281,0.5930957456656941,0.44511314301556837,0.36409212666298163
上海知识产权园,商务住宅,产业园区,杨树浦路2294-2300号知兴大厦,121.54862,31.265211,上海市,上海市,杨浦区,0.34457669208691505,0.20131758403937008,0.5252440358967864,0.38423298851771603,0.18340373429820625,0.4707247339261149,0.3241393772883528,0.26471433679843115
海州路七十一弄小区,商务住宅,住宅区,隆昌路(地铁站)3号口步行908米,121.546832,31.267686,上海市,上海市,杨浦区,0.4579495420556675,0.2549108191896129,0.6609219783081446,0.4781643375576994,0.274044954641375,0.5881559926871718,0.4448364540490973,0.36055550771852607
储运小区,商务住宅,住宅区,海州路130号附近,121.548981,31.267636,上海市,上海市,杨浦区,0.3881345249154202,0.2218808122750022,0.6007455043613862,0.41455488840972254,0.22593579480743228,0.5274210678171356,0.3662223153095596,0.30956959214130053
知兴大厦,商务住宅,写字楼,杨树浦路2294-2300号,121.548485,31.265051,上海市,上海市,杨浦区,0.34515004747315425,0.20097180249255434,0.522344487449628,0.38517456675088446,0.1826539907550572,0.4699316582358885,0.3245122842590737,0.2639712944824841
白丽大厦,商务住宅,写字楼,杨树浦路2310号,121.549281,31.265588,上海市,上海市,杨浦区,0.3325874541513179,0.1964850743653575,0.5220512033652251,0.3707471171118805,0.17833355925407998,0.4618076028163761,0.3108085088239215,0.2583694140859009
诚信科技园,商务住宅,产业园区,宁武路与杨树浦路交叉口东南50米,121.548315,31.265164,上海市,上海市,杨浦区,0.3531900070866384,0.20509465379495256,0.5317270023861126,0.39315622005737394,0.1883053984368153,0.4783258513571286,0.3334972268557268,0.2706686532228021
荣丰园区,商务住宅,产业园区,隆昌路55号,121.550086,31.267783,上海市,上海市,杨浦区,0.35777699939601315,0.20558761524660438,0.5717073332099694,0.3839877140660565,0.20430807835951895,0.4995478366002683,0.33010868038513413,0.2874148502391589
安歆乐寓,商务住宅,住宅区,杨树浦路与宁武路交叉口西南40米,121.548078,31.265003,上海市,上海市,杨浦区,0.3570722179819576,0.2061039911857991,0.5314371911183811,0.39739499591024746,0.18942869401942122,0.48037651291871375,0.3373025394130577,0.27224708888755983
跃海公寓,酒店住宿,宾馆酒店,海州路83号,121.547874,31.267468,上海市,上海市,杨浦区,0.4195328793006547,0.2375896224456,0.6271704069243587,0.44553252241405256,0.2468617377976978,0.554640407683429,0.4030959772402693,0.3320684957640171
四季广场,商务住宅,产业园区,长阳路1568号,121.533345,31.267511,上海市,上海市,杨浦区,0.781911370566396,0.2950145103062898,0.7595690786958064,0.6811395676911679,0.3397793817104649,0.7632401860297511,0.6320922384603928,0.5649264963266729
魔方公寓(宁国路店),酒店住宿,旅馆招待所,龙口路29弄7号(复地四季广场附近),121.532001,31.266646,上海市,上海市,杨浦区,0.7952414589445463,0.2788296808087207,0.7406431072007761,0.683261852458795,0.3313816298411725,0.7699214358647083,0.6086833406100773,0.5655924629836645
翔威白领公寓,商务住宅,住宅区,宁国路393之1-3号,121.53465,31.266723,上海市,上海市,杨浦区,0.7617217200715384,0.2940847395013653,0.7536915210869061,0.67287914621976,0.3346616563608693,0.7524024011548833,0.6307773640182928,0.550760475031475
龙泽大厦,商务住宅,写字楼,宁国路313弄,121.535524,31.265152,上海市,上海市,杨浦区,0.7336796629808784,0.27605889217314555,0.7151336471028139,0.657883777545778,0.31431571608617576,0.7317255960914891,0.5999566621811239,0.5232594888631737
华晖苑,商务住宅,住宅区,渭南路389弄,121.534751,31.263607,上海市,上海市,杨浦区,0.727647930051419,0.25558051498434203,0.6659012671235868,0.6366505409721792,0.2967692265796377,0.7230522204359932,0.5582270769851251,0.50657562944011
荣丰花园,商务住宅,住宅区,长阳路1400弄,121.530782,31.26601,上海市,上海市,杨浦区,0.8058373785394641,0.26737650321653367,0.7271476242193105,0.6846808596437333,0.329470297488933,0.7758862068304546,0.5877001209015953,0.5652039158658366
海上新东坊,商务住宅,写字楼,长阳路1514号,121.531411,31.267862,上海市,上海市,杨浦区,0.8031260454944983,0.28416103035897144,0.7549001692598751,0.699958277284865,0.33928019475816024,0.7710697862132846,0.6177313443432645,0.5746776476161088
海上新东坊,商务住宅,产业园区,长阳路1514号,121.531411,31.267862,上海市,上海市,杨浦区,0.8031260454944983,0.28416103035897144,0.7549001692598751,0.699958277284865,0.33928019475816024,0.7710697862132846,0.6177313443432645,0.5746776476161088
眉州路474弄小区,商务住宅,住宅区,河间路与渭南路交叉口南140米,121.534116,31.263862,上海市,上海市,杨浦区,0.7434922249632141,0.2582920876570088,0.6772920747142189,0.644065110746377,0.3026054393429795,0.7341145154597206,0.5653131139356894,0.5183929546725872
馨运公寓,商务住宅,住宅区,眉州路668弄,121.532781,31.265612,上海市,上海市,杨浦区,0.7814759162894005,0.2735117982124954,0.7244227912871101,0.6699723506806315,0.3226905744638733,0.7618341626432417,0.5988413131064259,0.5531172485968558
有家青年驿站,酒店住宿,其他,长阳路凯阳公寓,121.530631,31.268015,上海市,上海市,杨浦区,0.8097686701406838,0.27979379853665215,0.7543556805387229,0.7110258112334137,0.3389258407707554,0.7731710178375527,0.6112717505830374,0.5775211553778887
翔威公寓,酒店住宿,旅馆招待所,宁国路(地铁站)4号口步行300米,121.534816,31.266758,上海市,上海市,杨浦区,0.7594674640808942,0.2952024855466779,0.7549152233678211,0.6726050098612122,0.33536710394682717,0.7512438968403513,0.6320540284498363,0.5497113813980927
海友良品酒店(上海北外滩宁国路地铁站店),酒店住宿,其他,眉州路荣丰花园北侧,121.530844,31.267545,上海市,上海市,杨浦区,0.8080130575863514,0.2782529862261764,0.7491690721573255,0.7030527761490297,0.3368870784915397,0.7739847578170497,0.6084747017434584,0.5746661558942585
新起点公寓(眉州路店),酒店住宿,其他,眉州路752-754号上海越洋无线电有限公司,121.531239,31.266857,上海市,上海市,杨浦区,0.8036750632821019,0.2758986615942316,0.741287649389582,0.6913453920337322,0.3332601979544051,0.7738536544375315,0.6041203008223645,0.5696453280814548
久玖社区,酒店住宿,其他,上海市上海市杨浦区,121.534427,31.264248,上海市,上海市,杨浦区,0.7431839259614675,0.2631819204487801,0.6888023481579567,0.649270289839494,0.3060612729665736,0.7346536821162849,0.5760322355665238,0.5215102540543884
军崇谷科创园,商务住宅,产业园区,宁国路399号,121.533362,31.266545,上海市,上海市,杨浦区,0.778482778128003,0.28561063099425305,0.7446273388763344,0.6756752404344635,0.33053904236864723,0.7614972372215926,0.6193505573033852,0.5581345429758331
鑫谊园区,商务住宅,产业园区,长阳路1514号,121.531955,31.267657,上海市,上海市,杨浦区,0.7976484226228676,0.28658916665968753,0.7546675399283109,0.692256530645664,0.3385590023468061,0.7694270753373038,0.6209410775820401,0.5718327560411436
阳光城檀悦101,商务住宅,住宅区,河间路88弄1-11号,121.531919,31.26372,上海市,上海市,杨浦区,0.7752786722826541,0.2535686191474667,0.679244403876812,0.6466645251224253,0.3084027179945541,0.7574880436472847,0.5535946186793591,0.5346004253875206
碧桂园中心,商务住宅,写字楼,宁国路399号,121.533939,31.266085,上海市,上海市,杨浦区,0.7683774862652744,0.283532276693691,0.738152268720523,0.6710109609150123,0.3267042843680362,0.7549847434717014,0.6160385074178163,0.5501983410610973
员工宿舍,商务住宅,宿舍,宁国路393号附近,121.534849,31.266652,上海市,上海市,杨浦区,0.7583396334840653,0.29399442904939865,0.7529249195111607,0.6720500268515461,0.33412831639144724,0.750443947934987,0.6304724273932544,0.5484328791574782
复地四季广场A区,商务住宅,产业园区,龙口路附近,121.532926,31.267112,上海市,上海市,杨浦区,0.7857298688255229,0.28852862709087773,0.7515962731689568,0.6811401202336004,0.33531538513925035,0.7652435660681854,0.6235394820959616,0.5645764194570972
西门子总部大楼,商务住宅,写字楼,大连路号A楼,121.513249,31.258706,上海市,上海市,杨浦区,0.37935086151166914,0.13982936161427845,0.4591228662582131,0.24600530235290963,0.27538772768704545,0.5101982584360587,0.22256946134565855,0.264232514551629
西门子上海中心A楼,商务住宅,写字楼,大连路(地铁站)5号口步行103米,121.513207,31.258714,上海市,上海市,杨浦区,0.3782812987524529,0.13959176988548053,0.4588395274354043,0.24549849919857822,0.27525827407092696,0.5093117487605774,0.22223200014406258,0.26363275885327847
万硕大厦WANSHOW,商务住宅,写字楼,荆州路198号,121.515441,31.258723,上海市,上海市,杨浦区,0.446627426149138,0.15572131760672486,0.49292739983433653,0.2847728621412831,0.28748510817101613,0.56827883304439,0.2492875698828073,0.306221441743423
万硕大厦A,商务住宅,写字楼,荆州路与长阳路交叉口东南100米,121.515303,31.258608,上海市,上海市,杨浦区,0.43898965012010444,0.15361537429221633,0.4849819233219652,0.2785691608218714,0.28457523783420074,0.5600605996438657,0.2449896883581676,0.30046447968709705
光大安石中心T2座,商务住宅,写字楼,荆州路与霍山路交叉口南约80米,121.515771,31.25707,上海市,上海市,杨浦区,0.4036196302202757,0.1386619941643426,0.40884709187383633,0.2413978148023026,0.2545548577730062,0.5017425630990813,0.2154449728186788,0.2650029816822769
光大安石中心T1座,商务住宅,写字楼,大连路与霍山路交叉口东约120米,121.515562,31.256341,上海市,上海市,杨浦区,0.3730276893363673,0.12793202329259465,0.3683246815014111,0.21935437586064513,0.2368955176512834,0.4637021200807116,0.19651602746832103,0.24010198606361924
惠民新苑,商务住宅,住宅区,惠民路580弄,121.51953,31.257004,上海市,上海市,杨浦区,0.49760688890845656,0.15511353749388862,0.4348607310916433,0.30281685367230526,0.2599208643322798,0.5674341544291824,0.2536115941560301,0.3201765568486272
景江公寓(惠民路),商务住宅,住宅区,通北路335弄1-3号,121.519865,31.257322,上海市,上海市,杨浦区,0.5170934347881697,0.159833880741077,0.452515211088696,0.3183105830770423,0.26575193428752336,0.58665997618638,0.2649766938412275,0.33424915525977
博克·轻奢酒店(上海北外滩店),酒店住宿,三星级宾馆,惠民路596号,121.519844,31.257336,上海市,上海市,杨浦区,0.5171393971662175,0.15993884735285385,0.45314921571385697,0.31832936267236767,0.2660686976673582,0.5870015788082449,0.2651148843024154,0.3344113092701681
上粮大厦,商务住宅,写字楼,通北路400-8号楼附近,121.520472,31.258478,上海市,上海市,杨浦区,0.5724910082747913,0.17369072564520802,0.5115315282869385,0.365655157850983,0.284499462559352,0.6447741766926363,0.2992693433217212,0.37560663414646417
光大安石中心,商务住宅,写字楼,霍山路398号,121.515867,31.256534,上海市,上海市,杨浦区,0.3881274452996863,0.13229866876898747,0.38172796176255924,0.22886506678787588,0.24276155361528157,0.4792889043146506,0.20414450215580796,0.2508896603341453
联通大厦,商务住宅,写字楼,惠民路与大连路辅路交叉口东100米,121.516571,31.255297,上海市,上海市,杨浦区,0.36154314851364144,0.11915984955003697,0.32682437324833535,0.20768645875712347,0.21430281815194893,0.4372523252639653,0.1816858894588981,0.22480697093378052
保利绿地广场C号楼,商务住宅,写字楼,霍山路519号,121.516417,31.258702,上海市,上海市,杨浦区,0.47449164852698844,0.16115438306344823,0.5029993197313258,0.30051437812827786,0.29068913145180436,0.5890613731736737,0.2602212913308019,0.322921017007513
上海博克时尚酒店,酒店住宿,宾馆酒店,惠民路596号,121.520061,31.257306,上海市,上海市,杨浦区,0.5208797039439236,0.1601548675199867,0.45237829584661643,0.32152463312763896,0.2650030454718776,0.5886001756229255,0.26654499468383464,0.3361985994676573
翡丽甲第雅苑,商务住宅,住宅区,辽阳路68弄,121.518978,31.258576,上海市,上海市,杨浦区,0.5397569416073055,0.17072268722813547,0.5135910440517427,0.34109641874095986,0.2901108653216694,0.6285310819035794,0.28589959967121686,0.35925196205563875
上海精密机械加工园区,商务住宅,产业园区,榆林路200号,121.517384,31.254301,上海市,上海市,杨浦区,0.3419115261084783,0.1088071874845078,0.2881882381827799,0.19345636837437472,0.18991998370798754,0.40713738770814334,0.16460140325188446,0.20621888294219426
首创天阅滨江,商务住宅,住宅区,通北路315弄,121.518988,31.256311,上海市,上海市,杨浦区,0.45870126644735193,0.14450328204615767,0.3963110340763611,0.2731237435697943,0.24496860603051226,0.5273172103193247,0.23047656061724192,0.29122643138535415
安联大厦,商务住宅,写字楼,荆州路168号,121.515907,31.258248,上海市,上海市,杨浦区,0.4455357532824288,0.15332413535030728,0.4727501938281131,0.2769217867103773,0.2798179455252841,0.5581254333127136,0.24375953092364253,0.3011585373962835
榆林路280弄小区,商务住宅,住宅区,榆林路280弄1-32号,121.518504,31.254989,上海市,上海市,杨浦区,0.395064578753773,0.12411460750569187,0.3284763637499129,0.22790951817516794,0.2113714945620611,0.4579728708185918,0.19162297323104055,0.2427334174904957
景星路385弄小区,商务住宅,住宅区,景星路385弄3-78号,121.518745,31.254352,上海市,上海市,杨浦区,0.3738035949422155,0.1159207654599706,0.3011296404201512,0.21402409812525477,0.19502388443826085,0.4326617982089198,0.17734328851900347,0.22569645285026832
明园大楼,商务住宅,商住两用楼宇,长阳路许昌路860号,121.520506,31.262774,上海市,上海市,杨浦区,0.6984685098688825,0.2158266792619841,0.7245135802829383,0.558786612345778,0.3458223825328579,0.7876873745319622,0.41021046130701233,0.48874348096974163
明德公寓(长阳路),商务住宅,住宅区,长阳路758号,121.518828,31.261993,上海市,上海市,杨浦区,0.638890433993949,0.2054606674131611,0.6961991468882804,0.49424847704255953,0.3466102043854731,0.7520839091267568,0.3741508384614275,0.4525856096586036
辽海小区,商务住宅,住宅区,辽阳路189弄,121.516836,31.259242,上海市,上海市,杨浦区,0.503270755576111,0.16907220989468574,0.536926379009426,0.32788204449305014,0.3020329298632835,0.6201660946618683,0.277946237198978,0.3453854151129538
明园坊,商务住宅,住宅区,许昌路881弄,121.519986,31.262115,上海市,上海市,杨浦区,0.6702671558264242,0.20853934709022406,0.6960987405228858,0.5170204036249522,0.3405744435559089,0.7678284033419674,0.387381438233856,0.46755690865034677
明昌公寓,商务住宅,其他,许昌路899号,121.519878,31.26236,上海市,上海市,杨浦区,0.6741694015739031,0.21090069557062666,0.7094586248760818,0.528561773272168,0.3450956411915641,0.7733123989076296,0.39336394707849587,0.4729670457823645
三九商务楼,商务住宅,写字楼,吉林路60-1,121.520243,31.261439,上海市,上海市,杨浦区,0.6581197989288008,0.20194950772044248,0.6599520429354083,0.48585175028994654,0.3285557978585514,0.7507848467826331,0.37102428247367986,0.45232495687549956
大连路壹中心,商务住宅,写字楼,霍山路与通北路交叉口东北80米,121.519621,31.260603,上海市,上海市,杨浦区,0.6194157939736934,0.19225527493421302,0.6188511625654013,0.4355931400136219,0.31984187869776864,0.7167612570393591,0.34254306199274126,0.4234069822824336
海鸥科创大厦A座,商务住宅,写字楼,霍山路与通北路交叉口东北40米,121.519463,31.260367,上海市,上海市,杨浦区,0.6084742472961568,0.18957910540081524,0.6067870645529079,0.42214140923697685,0.3169804917649838,0.7064074740129874,0.33471547943835517,0.41511941026968474
嘉禄公寓(济宁路),商务住宅,住宅区,济宁路29弄,121.520475,31.259636,上海市,上海市,杨浦区,0.6110994064713319,0.18465463123660625,0.568703590810896,0.4082240262978535,0.3018436165474707,0.6906671489544336,0.32701507642363603,0.40738972250655503
保利绿地广场,商务住宅,其他,通北路589号,121.517248,31.261067,上海市,上海市,杨浦区,0.5702205577836214,0.19132523771898122,0.6437969469208606,0.41925938497191856,0.3367393285577472,0.6979977739435076,0.3313848818038126,0.40514374161278505
辽阳路321弄小区,商务住宅,住宅区,长阳路与辽阳路交叉口西20米,121.515999,31.260795,上海市,上海市,杨浦区,0.5264439393117503,0.18285247145512076,0.6193189852709564,0.3832817579895734,0.33178238067785976,0.6628279778281547,0.30976583711981737,0.3770068429806636
沪东工人文化宫分部办公楼,商务住宅,写字楼,通北路540号,121.519609,31.261125,上海市,上海市,杨浦区,0.6340500000005921,0.19763068279714652,0.6465405524040316,0.46050626012352036,0.32795368821278753,0.7344106786499447,0.3564995549916289,0.4373609988173376
明圆公寓,商务住宅,其他,长阳路782号,121.519332,31.262188,上海市,上海市,杨浦区,0.6567102810303778,0.2083248162973948,0.7041229925141548,0.5119651695287873,0.34649108653036126,0.7633378882997313,0.38400808291546024,0.463231859179777
翡丽云邸,商务住宅,住宅区,霍山路699号(近辽阳路),121.517949,31.260003,上海市,上海市,杨浦区,0.5575730370707181,0.18193069075378096,0.585952058928776,0.3797693571149214,0.3158272167883491,0.6705763545236813,0.3094945272004413,0.3846528334579668
凯苑酒店,酒店住宿,宾馆酒店,长阳路666号保利绿地广场二楼,121.516878,31.260892,上海市,上海市,杨浦区,0.5546148434000879,0.18795174521958766,0.631879216406875,0.4037683402813356,0.3338421496122507,0.6847495487175236,0.3222973516575869,0.3942755382758751
明阳公寓,商务住宅,其他,长阳路812号,121.51974,31.262539,上海市,上海市,杨浦区,0.6755418823672347,0.21252439243338464,0.7196768775114656,0.5363683365431431,0.34892536978111194,0.7765736755330913,0.39734752139597007,0.47641366451355593
燕舞·东方保利广场,商务住宅,住宅区,通北路589号附近,121.517323,31.260756,上海市,上海市,杨浦区,0.5629836672723622,0.1880882150552073,0.6261827994649835,0.4045709181212031,0.3306559646274862,0.6882852992639863,0.32319090230346625,0.3970693972166245
保利绿地广场K楼,商务住宅,写字楼,通北路589号附近,121.517202,31.26056,上海市,上海市,杨浦区,0.5537107929886407,0.1854288068532242,0.6143769989944133,0.39275754282585096,0.32708173118998113,0.678827060107682,0.3163704741550948,0.3894611738254445
保利绿地广场M楼,商务住宅,写字楼,长阳路666号,121.51686,31.260793,上海市,上海市,杨浦区,0.551122088928946,0.18673691144326657,0.6260108903958237,0.39840476781849804,0.3318979423204756,0.6808276922070746,0.31924731109990934,0.39103432445913255
明渡公寓,商务住宅,其他,长阳路与通北路交叉口东北100米,121.518759,31.262036,上海市,上海市,杨浦区,0.63833707640227,0.20578678687084806,0.6988058187397052,0.4956034331602637,0.3477695939191578,0.7524739704612812,0.37481947788207176,0.45302756964223384
中国盐城(上海)国际科创中心,商务住宅,写字楼,长阳路与辽阳路交叉口东80米,121.517153,31.261072,上海市,上海市,杨浦区,0.5677245400619022,0.1910485343119285,0.6437027483758283,0.4178854310232118,0.3370108499919027,0.6964008567113903,0.3305220165546276,0.40387063373898496
上海海鸥科创大厦,商务住宅,其他,霍山路777号,121.520062,31.260636,上海市,上海市,杨浦区,0.6312588605699601,0.1934115013538703,0.6195543576420038,0.4443181349261501,0.3179903488916916,0.7228809432736791,0.3478232540281098,0.4293036574477941
保利绿地广场J楼,商务住宅,其他,辽阳路199号,121.516471,31.25977,上海市,上海市,杨浦区,0.5089729729098237,0.17317809398405318,0.563632969377622,0.3434863065119839,0.31166784297897127,0.6340676372206935,0.28716546396609516,0.3544985325737332
霍山路788弄12号,商务住宅,其他,霍山路736号附近,121.52033,31.25999,上海市,上海市,杨浦区,0.6186272598653536,0.1876339734609278,0.5863455990160261,0.42020924632131007,0.3074810711093154,0.7022906463612903,0.3341726859296704,0.41517048736162904
明园大楼(西门),商务住宅,商住两用楼宇,长阳路860号,121.520399,31.262468,上海市,上海市,杨浦区,0.6886898224054447,0.2126524262655701,0.7105495183947401,0.541054384662171,0.3424450519905149,0.779933244620217,0.4007855549840287,0.4802323741285596
云木宾馆,酒店住宿,宾馆酒店,惠民路689号,121.52108,31.25831,上海市,上海市,杨浦区,0.5800391653779394,0.17321567490469264,0.5035161684362395,0.37224477001667505,0.27941759524797843,0.6445802626421974,0.3015168609989685,0.3776566457860215
榆汾新苑,商务住宅,住宅区,汾州路218弄,121.522004,31.257762,上海市,上海市,杨浦区,0.5781531335814131,0.16894017471108586,0.4772415821008901,0.3741580398599064,0.26595868559445685,0.6295943572893665,0.2972681404848231,0.3710327602592797
同兴里(通北路),商务住宅,住宅区,通北路122弄,121.52278,31.254965,上海市,上海市,杨浦区,0.4708637361652666,0.13578807348392766,0.34817896932661485,0.29869400428366233,0.20633505420562348,0.5072401984159325,0.22754272555161048,0.2877308456860998
界龙商务大楼,商务住宅,商住两用楼宇,平凉路608号-618号,121.524374,31.257064,上海市,上海市,杨浦区,0.5852918881950018,0.16486166173147265,0.4438143929712604,0.4001132802449778,0.2409704755379245,0.6117944704205881,0.3009199264356454,0.3679795354592405
榆林路610-680号小区,商务住宅,住宅区,榆林路610-680号,121.524047,31.258421,上海市,上海市,杨浦区,0.6366652855540517,0.17973517729207003,0.5067037030767345,0.4360440524717078,0.26539066590739724,0.6688968876174386,0.33547828094877624,0.4073628866247182
惠浦大厦,商务住宅,住宅区,平凉路550弄3号,121.52401,31.256565,上海市,上海市,杨浦区,0.5590000815320925,0.15821714725298433,0.42118795365290157,0.37646522140657496,0.23366661422692103,0.5876729688661405,0.2834073251186884,0.34950311057121275
平凉路627弄小区,商务住宅,住宅区,平凉路627弄1-6号,121.524375,31.258186,上海市,上海市,杨浦区,0.6318551862432564,0.1778975113589653,0.4957361747552206,0.4353426410406393,0.26002785599119077,0.6604145708825315,0.3324656620648457,0.40265032346183255
平凉路小区,商务住宅,住宅区,榆林路与许昌路交叉口东80米,121.52437,31.258148,上海市,上海市,杨浦区,0.6302987988775507,0.17746431058048465,0.4939842372890293,0.4340808620040495,0.25945752961182605,0.658834272141556,0.3313671478253111,0.4014907962340027
惠民路714弄小区,商务住宅,住宅区,惠民路与汾州路交叉口东北约60米,121.521752,31.258644,上海市,上海市,杨浦区,0.6059217373983216,0.17778458934348032,0.519458244888257,0.3964498595243983,0.2813121954876868,0.664229895033691,0.3165023971091754,0.3940958714693954
榆林路369弄小区,商务住宅,住宅区,榆林路与通北路交叉口东北60米,121.52112,31.25692,上海市,上海市,杨浦区,0.5281542553916323,0.15782214660451327,0.43590635718677945,0.330433610849173,0.2543490455675472,0.5838932083056875,0.2669698516241721,0.33635946415311396
协兴里(许昌路),商务住宅,住宅区,许昌路476弄,121.524976,31.256765,上海市,上海市,杨浦区,0.5784077638921736,0.16167454361584993,0.4295289460860985,0.40161553890110835,0.2315389654954213,0.599428679081011,0.2971825364801204,0.36156848475574155
华申大楼,商务住宅,写字楼,惠民路694九庭电商社区,121.521202,31.257956,上海市,上海市,杨浦区,0.569668697162679,0.16972174123754372,0.48632378292465134,0.36372998856770183,0.2730698301019564,0.6308621428188418,0.2941191093084143,0.3686915422601535
汾州里,商务住宅,住宅区,许昌路441号,121.524346,31.255634,上海市,上海市,杨浦区,0.5201451098054704,0.1463609890540489,0.37903582814873404,0.35027983494357834,0.21255329799622857,0.5446777119635853,0.2587417831011773,0.3204822339993123
宝福里,商务住宅,住宅区,榆林路528弄1-44号,121.522575,31.257199,上海市,上海市,杨浦区,0.5657725403502072,0.16349298322027953,0.4505616258389692,0.3683845665905576,0.2532267293999234,0.6090612790367913,0.2881407992959112,0.35901618959795323
隆义里,商务住宅,住宅区,平凉路509弄,121.522524,31.256779,上海市,上海市,杨浦区,0.5474239100339943,0.15864369609513695,0.43086955267845595,0.35391417677748244,0.24579235443092276,0.5897919178164303,0.2763568991185349,0.34529904746998163
平凉路547弄小区,商务住宅,住宅区,平凉路547弄14-113号,121.523364,31.257468,上海市,上海市,杨浦区,0.5892532393562776,0.16800553898287585,0.46291250181577265,0.3929257351580214,0.2537534702983639,0.6256398862597576,0.302920171108529,0.37380702015302864
三益里(许昌路),商务住宅,住宅区,许昌路452弄,121.525384,31.256387,上海市,上海市,杨浦区,0.5647226698309341,0.1570668015868796,0.41179404408101394,0.3959338555215196,0.22134327027824116,0.5820238750751097,0.28900774533595625,0.3509761337835458
汾州路218弄2号,商务住宅,住宅区,汾州路226号附近,121.521743,31.257872,上海市,上海市,杨浦区,0.5773892947553865,0.169742336008611,0.4824509952088117,0.37217148548763507,0.2691407775551022,0.632206860056392,0.2974535514199683,0.37176964688895814
新康里(北门),商务住宅,其他,塘沽路155弄,121.523599,31.25446,上海市,上海市,杨浦区,0.4573213248029635,0.12972099751169788,0.3280169263746969,0.29491538508986453,0.19162973409705006,0.48693916928807324,0.21925692316870982,0.2765969245936311
汾州路30弄小区,商务住宅,住宅区,汾州路30弄2-45号,121.524144,31.255395,上海市,上海市,杨浦区,0.5068376725272232,0.1430005984214092,0.3686463524724322,0.33804794851360354,0.20869393208711315,0.5328294288719366,0.25026255900649985,0.31129096554412083
德昌园创意园,商务住宅,其他,平凉路624号,121.525234,31.257814,上海市,上海市,杨浦区,0.6262297712275926,0.17517863997421193,0.47785936797599,0.44008434087195925,0.24901234403635533,0.6466620988628358,0.33024058953433855,0.39619096786958247
怀德路491弄78,商务住宅,住宅区,怀德路491弄78号,121.525244,31.257218,上海市,上海市,杨浦区,0.6009212302686107,0.16772363492285006,0.4501584612558951,0.4214872416874359,0.23834717213140708,0.6205786867153993,0.3127355377247947,0.37752326437029643
怀德路491弄66号,商务住宅,住宅区,平凉路722附近,121.525244,31.257218,上海市,上海市,杨浦区,0.6009212302686107,0.16772363492285006,0.4501584612558951,0.4214872416874359,0.23834717213140708,0.6205786867153993,0.3127355377247947,0.37752326437029643
怀德路491弄92号,商务住宅,住宅区,平凉路(地铁站)4号口步行277米,121.525331,31.257011,上海市,上海市,杨浦区,0.5925848587335957,0.16514341286739923,0.44046349137898017,0.4162803787390864,0.23388699800012974,0.6112366724109606,0.3073173232186324,0.3712612941863392
隆仁里(榆林路),商务住宅,住宅区,榆林路446弄2-5号,121.521751,31.256319,上海市,上海市,杨浦区,0.5150474139592783,0.15175112783485906,0.4080383834693092,0.3241266479530081,0.23999632723289224,0.5625225804152506,0.25677617185524704,0.3235373165169013
许昌路328弄6号,商务住宅,其他,许昌路上海市杨浦区怀德路第一小学北侧约80米,121.525205,31.254407,上海市,上海市,杨浦区,0.46895904150776546,0.1292785106502131,0.3264062353631427,0.3190934867590137,0.1819022691890384,0.4850811944600542,0.22811952170776648,0.28327549413725917
里益三,商务住宅,其他,许昌路与扬州路交叉口北80米,121.524578,31.256064,上海市,上海市,杨浦区,0.5425168541031714,0.15227024842949238,0.3978871625846391,0.36989355656733175,0.22011547885119387,0.5656562772601066,0.27321434580805914,0.33620117999903676
许昌路623弄小区,商务住宅,住宅区,惠民路972号附近,121.522917,31.258778,上海市,上海市,杨浦区,0.6324499406196497,0.18113002782942042,0.5239667223178933,0.42415912825461055,0.2767934325542592,0.677735794110116,0.3324635014853908,0.4086653415092834
平凉为邦商务公寓,酒店住宿,宾馆酒店,怀德路560号,121.525601,31.257731,上海市,上海市,杨浦区,0.6260079644080417,0.17473453660344723,0.47352908500636054,0.4441860493762362,0.24530209862553823,0.6434959941273454,0.3311294547720669,0.39529128324380375
平凉为邦商务公寓,酒店住宿,旅馆招待所,怀德路560号,121.525601,31.257731,上海市,上海市,杨浦区,0.6260079644080417,0.17473453660344723,0.47352908500636054,0.4441860493762362,0.24530209862553823,0.6434959941273454,0.3311294547720669,0.39529128324380375
许昌路277弄195号,商务住宅,其他,纺三小区(许昌路西),121.525034,31.254573,上海市,上海市,杨浦区,0.47568943510806844,0.13168306618687708,0.3334995844480237,0.32280792072886855,0.18636167073783064,0.4934165134375171,0.2319807467392615,0.28812333914608634
许昌路277弄159号,商务住宅,其他,扬州路与汾州路交叉口南50米,121.524006,31.25446,上海市,上海市,杨浦区,0.4614668029406399,0.12994617413003093,0.32855869584889846,0.30165158375368795,0.18968864346852118,0.4877693927329806,0.22204119860396365,0.2790441426580517
扬州路208弄4号,商务住宅,其他,许昌路210号附近,121.5235,31.254284,上海市,上海市,杨浦区,0.44805183882342914,0.12719770462258692,0.3203876162835967,0.2870206239935834,0.18822372804424262,0.47824333304235545,0.21350000422340082,0.2700974910933869
怀德路491弄109号,商务住宅,其他,许昌路456号附近,121.52481,31.256113,上海市,上海市,杨浦区,0.547033738890001,0.15310497198733455,0.39985157265911925,0.3759233069486698,0.21964054079907555,0.5683963814509284,0.27644716400817126,0.3390738150980664
许昌路277弄70号,商务住宅,其他,平凉路(地铁站)3号口步行578米,121.524511,31.254258,上海市,上海市,杨浦区,0.45651604599607626,0.1271908096608338,0.32034799549658566,0.3022916978716246,0.18274058613643374,0.4784150971036588,0.21942265734217434,0.27499373268101773
许昌路277弄52号,商务住宅,其他,许昌路229号附近,121.52517,31.254262,上海市,上海市,杨浦区,0.461770692629387,0.1272731811906399,0.32046091459997966,0.312954974789498,0.17908407077471317,0.47803795959698847,0.22365886941053667,0.2782530360009247
许昌路277弄190号,商务住宅,其他,平凉路322附近,121.52461,31.254611,上海市,上海市,杨浦区,0.4741158967552346,0.13224227285859766,0.3352543666411912,0.3173074602608658,0.18963033110168748,0.4954598283654118,0.2304288780901307,0.28738038024777784
恒夏酒店(上海北外滩渔人码头店),酒店住宿,宾馆酒店,龙江路192号(上海红房子医院旁),121.528937,31.255839,上海市,上海市,杨浦区,0.5468343687426037,0.14885438475701393,0.38105932299717293,0.4249327805642621,0.18672264170203776,0.5439223834080529,0.29503802966237896,0.3388657939325886
海泰大厦,商务住宅,住宅区,江浦路259弄1-7号,121.529373,31.255322,上海市,上海市,杨浦区,0.5201357061992279,0.1407129463757792,0.35801222884897344,0.40821898787684446,0.17348734362818302,0.51449923412368,0.28044679507849946,0.32073050108611767
浦江风景苑,商务住宅,住宅区,龙江路289弄1-26号,121.52983,31.257156,上海市,上海市,杨浦区,0.6047559411188485,0.1694793678600878,0.43716889956252125,0.48044326729587766,0.20746852134481836,0.600861780450344,0.344141540637973,0.38053853908119567
海杨公寓,商务住宅,住宅区,扬州路588弄2-46号,121.528908,31.258047,上海市,上海市,杨浦区,0.6478969133376419,0.183597935809096,0.4805610156821565,0.5014060117960109,0.23028671507681295,0.647160834576441,0.36905105700005836,0.41049165244726343
欧洲凯城园,商务住宅,住宅区,许昌路328弄1-21号,121.525957,31.255002,上海市,上海市,杨浦区,0.5024110218454936,0.13770653256287108,0.3507046711319503,0.35416657395417483,0.18965183519096973,0.5133156892485575,0.2508646483657077,0.3064175862343326
保利·香槟花园,商务住宅,其他,怀德路366弄,121.5263,31.25638,上海市,上海市,杨浦区,0.5703511441236525,0.15724920565132341,0.4105082430195534,0.4111049297522277,0.2150643694326683,0.5811335780350988,0.29562096626720913,0.35422332656950106
汇龙创意园,商务住宅,产业园区,扬州路464号,121.527536,31.25709,上海市,上海市,杨浦区,0.6071233354565116,0.16801503876897014,0.43994179695043273,0.45411184366757384,0.22076633539671162,0.6121315602774591,0.32729886054165047,0.3801970547248018
银浦大楼,商务住宅,住宅区,江浦路466号,121.527523,31.258614,上海市,上海市,杨浦区,0.6716946719511138,0.18975936735133023,0.5095357289800844,0.5012438444935496,0.24877554878053018,0.6782196262734246,0.37618559739805746,0.42750676388884645
龙江路130弄小区(龙江路),商务住宅,住宅区,龙江路130弄1-16号,121.528238,31.254872,上海市,上海市,杨浦区,0.5011698299761718,0.13445812372825058,0.3420110425356459,0.3795085337284974,0.17168708480442207,0.49808100618453804,0.26045803572960935,0.30637191253886165
仁昌里,商务住宅,住宅区,江浦路231弄2-75号,121.52929,31.254831,上海市,上海市,杨浦区,0.496464408502218,0.13298482160070327,0.33773647428901166,0.38784926952365334,0.16405344162977512,0.4893892963936637,0.26419844490667593,0.3040603007894288
保利香槟苑商办楼,商务住宅,写字楼,江浦路395号,121.528263,31.256841,上海市,上海市,杨浦区,0.5957703174483496,0.1646099958341721,0.4270771492721901,0.45504736700228987,0.21129783447872924,0.59710236659923,0.32432355913905375,0.3725995340081387
扬州路529号,商务住宅,住宅区,扬州路529-1临附近,121.528009,31.258294,上海市,上海市,杨浦区,0.659448418705162,0.18618978465278438,0.4939290677076831,0.4985213523053439,0.24026412892852084,0.6632285858982951,0.370192148370761,0.4183750385444109
扬州路421弄,商务住宅,住宅区,平凉路(地铁站)3号口步行178米,121.52633,31.256812,上海市,上海市,杨浦区,0.5905307296547939,0.16322900047598438,0.42981790910949286,0.426597405844765,0.22319494343596138,0.6017612034486542,0.3091765101051853,0.36856387047037636
好家,酒店住宿,经济型连锁酒店,国定东路55号,121.528175,31.25761,上海市,上海市,杨浦区,0.6305676964975926,0.17640486666444016,0.46237045365941515,0.4797258735984914,0.22665710315108556,0.6328482679945097,0.3490930064338535,0.3972182857248393
平凉路街道银龄苑,商务住宅,住宅区,龙江路130弄2甲,121.527922,31.254725,上海市,上海市,杨浦区,0.4941997519909363,0.13254002221834427,0.3364638906727169,0.3700473394297314,0.17078106024265113,0.4921184258548839,0.25411852153427,0.3012032317368872
海鹏大厦,商务住宅,住宅区,江浦路259弄1-7号,121.52903,31.255123,上海市,上海市,杨浦区,0.5117013561832521,0.13770927631078833,0.35059923389690745,0.39735110063373624,0.1716651326045787,0.5064459983522842,0.27242833939224936,0.3144929481342122
保利香槟苑1期,商务住宅,住宅区,怀德路345附近,121.526852,31.255349,上海市,上海市,杨浦区,0.5231288511856452,0.14235965251040958,0.36453452444127343,0.3811250714920291,0.1907655910527181,0.5283158115083797,0.26730609983261927,0.3208959278017401
申晖大厦,商务住宅,住宅区,江浦路259弄1-7号,121.528577,31.255487,上海市,上海市,杨浦区,0.5306841356418086,0.1435092570809279,0.3670630655569072,0.407628402562811,0.1819665585660844,0.5279789441170971,0.2817626241947644,0.3272900266296572
阳光金钥匙酒店公寓,酒店住宿,旅馆招待所,北外滩街道上海白玉兰广场平凉路716号实益大厦101室,121.525939,31.258252,上海市,上海市,杨浦区,0.649994270377011,0.18197350657712996,0.4969305206935922,0.4657653751141339,0.2522063543770924,0.6658957015119922,0.3499526905453818,0.4125836582049616
实业大厦商务中心,商务住宅,写字楼,平凉路716号,121.52617,31.258205,上海市,上海市,杨浦区,0.6496717256054105,0.18174924508216114,0.4943241771593187,0.4682534397953805,0.25003605737155327,0.6640766934719923,0.35073402127067277,0.41200960825247895
怀德路526弄5号,商务住宅,住宅区,怀德路560附近,121.52569,31.257571,上海市,上海市,杨浦区,0.6199515807368309,0.1727745049858088,0.46593083703372695,0.44077366564299625,0.24187139789324158,0.636601695900766,0.3271134934381497,0.39065843888211615
贝壳酒店(上海市杨浦区北外滩平凉路滨江店),酒店住宿,宾馆酒店,平凉路740号,121.526455,31.258426,上海市,上海市,杨浦区,0.6602007286311518,0.18514969359035385,0.5039333542774,0.47948406559297957,0.2520778362442574,0.6732591955738962,0.3601944805904922,0.4195733717165365
海鹏花苑,商务住宅,住宅区,江浦路259弄之1-7号,121.528987,31.255316,上海市,上海市,杨浦区,0.5212770762314184,0.14073901548666837,0.3587966482664131,0.4047304694103313,0.17586752788998675,0.5167832735038371,0.2784156101798867,0.32113436374268345
怀德路287弄小区,商务住宅,住宅区,怀德路287弄1-17号,121.52777,31.254251,上海市,上海市,杨浦区,0.47108144078440445,0.1256960002247163,0.31718517652682243,0.34919766173773814,0.16221560413873443,0.46877332491000706,0.23859005486691545,0.2848656231192142
平凉路742弄小区,商务住宅,住宅区,平凉路与江浦路交叉口西南20米,121.526742,31.258491,上海市,上海市,杨浦区,0.664259506331868,0.1865325412638184,0.5062236523401822,0.4859989231695849,0.25142210569975,0.6755777754838068,0.3649417445677605,0.4223107951502685
怀德路482弄小区,商务住宅,住宅区,怀德路482弄1-10号,121.525929,31.256807,上海市,上海市,杨浦区,0.5879501222177251,0.16289701327664624,0.43024325999403423,0.41979705775545717,0.22581719420507124,0.6018608148363056,0.3058865039548263,0.3670522674691218
保利香槟苑,商务住宅,住宅区,怀德路与龙江路交叉口西北80米,121.526852,31.255341,上海市,上海市,杨浦区,0.522738593350465,0.14224064188947708,0.3641850162947716,0.38081288512803346,0.19060348418270992,0.5279093761762873,0.2670540319768739,0.32062149148296515
平凉路街道社区综合文化活动站,商务住宅,社区中心,怀德路399号附近,121.52618,31.256049,上海市,上海市,杨浦区,0.5541287489438467,0.1526559954266051,0.3959740882476602,0.39731151552594834,0.20931220857891059,0.5651547921397532,0.284602880625204,0.342745115435693
平凉路街道社区党建服务中心,商务住宅,社区中心,龙江路83号,121.527857,31.255451,上海市,上海市,杨浦区,0.5296025424309012,0.14327838610968388,0.36720830026797413,0.3982350546889104,0.18598587899941277,0.5295282183011694,0.27658664251026843,0.32595302804584037
江浦路268弄,商务住宅,其他,江浦路与龙江路交叉口东40米,121.529606,31.256118,上海市,上海市,杨浦区,0.5576630973279368,0.15296627800857932,0.39106551588027094,0.44135775657062254,0.18804703120594235,0.5532514650121855,0.3075794091342572,0.3470016690620717
江浦路259弄5号,商务住宅,住宅区,丹阳路(地铁站)4号口步行261米,121.528738,31.25564,上海市,上海市,杨浦区,0.5377513790898876,0.1458242807772339,0.3731254757768967,0.4152820698855354,0.18400750444232272,0.5349659893370742,0.2875268538885804,0.33236049713996246
实益大厦,商务住宅,其他,平凉路716号,121.525947,31.258186,上海市,上海市,杨浦区,0.6474005540063629,0.18115198050571793,0.49390061738120944,0.4639496575624316,0.25104186489499697,0.6631164941464512,0.3480411528498008,0.41062398843101994
许昌路328弄16号,商务住宅,其他,怀德路上海市杨浦区怀德路第一小学北侧约170米,121.526173,31.255223,上海市,上海市,杨浦区,0.514272415302958,0.1408545879824119,0.3599459829029545,0.36613860537778636,0.19277455799567605,0.5239326923495208,0.2590980748692642,0.3147102825891356
尚凯商务大厦,商务住宅,写字楼,江浦路1000号,121.522611,31.266941,上海市,上海市,杨浦区,0.7982604580151691,0.24863624722323885,0.8380004163102133,0.7719208323369022,0.36306914340201785,0.8261044878063718,0.5242791078625545,0.5779723068171844
金上海家园,商务住宅,住宅区,昆明路1147号,121.520803,31.266539,上海市,上海市,杨浦区,0.7715267874649141,0.24432979866819465,0.8670703498600975,0.7574286387892162,0.3818105302042841,0.8331241515987423,0.5052595591410372,0.5703508157042843
现代星洲城3期,商务住宅,其他,江浦路1100弄1-24号,121.52205,31.267997,上海市,上海市,杨浦区,0.8009712602080682,0.25132230858180654,0.8722257357298009,0.8162309907435085,0.3732505908727953,0.8293614010054388,0.540132404924148,0.5930420296842546
格林豪泰酒店(上海长阳路江浦公园地铁站店),酒店住宿,经济型连锁酒店,长阳路999号,121.522643,31.264513,上海市,上海市,杨浦区,0.7701757350470836,0.23446825342149774,0.7686652085464892,0.6646793303552078,0.3450849120424486,0.8192945867454706,0.4732084660275841,0.5379089667531006
康阳小区,商务住宅,住宅区,长阳路1120弄,121.525455,31.264322,上海市,上海市,杨浦区,0.7998483519032001,0.24046627684185512,0.723924290958802,0.6631134618675179,0.3286488724025655,0.8070703967449118,0.4992478200110325,0.5444210901748121
李尔亚洲总部大楼,商务住宅,写字楼,江浦路833号,121.523347,31.263659,上海市,上海市,杨浦区,0.7668313494201819,0.22880848838712473,0.7282768787662199,0.629387498920191,0.3310703150195091,0.8087559418639855,0.45997463386998694,0.5247922224791634
梅邨,商务住宅,住宅区,江浦路969弄-1-13号,121.522626,31.265381,上海市,上海市,杨浦区,0.7818180498077425,0.24061683743502316,0.7972664142249978,0.7044299575557512,0.3531739126031905,0.8244780423804465,0.492691746774432,0.5533520461321507
上汽安吉物流B座,商务住宅,写字楼,昆明路1209号,121.522872,31.266978,上海市,上海市,杨浦区,0.8011637414510809,0.24929246943615457,0.8330860735564571,0.7721197355801198,0.3605449655768385,0.8246719493789497,0.5266839769671797,0.5783811891192809
现代星洲城江浦路1100弄,商务住宅,住宅区,[],121.521984,31.267922,上海市,上海市,杨浦区,0.7998034165795244,0.25108981066482977,0.8723777486847754,0.8137292298020695,0.37385733702202867,0.8298295660344058,0.5385099908686212,0.5921383899842142
正盈泰江浦公园地铁站店,酒店住宿,宾馆酒店,长阳路999号一幢,121.522746,31.264176,上海市,上海市,杨浦区,0.7665119296710168,0.23190068278518894,0.7550756255548803,0.6494942484227403,0.3407358706562467,0.8158147553471474,0.46619436988445445,0.531955133395068
师泽园商务楼,商务住宅,写字楼,长阳路965-999号,121.522222,31.264691,上海市,上海市,杨浦区,0.76670017301898,0.23501371301435164,0.7818789812466205,0.6714540585549744,0.35079214431060063,0.8214968876710013,0.47372529619994513,0.5398398468818739
江浦路989弄小区,商务住宅,住宅区,江浦路989弄1-2号,121.522312,31.265383,上海市,上海市,杨浦区,0.7777026728906438,0.2400457841344145,0.8031014483032194,0.7042868046175575,0.35626367068572196,0.8253786760085345,0.4902207460017246,0.5527329835950727
正盈泰酒店(江浦公园地铁站店),酒店住宿,其他,长阳路999号,121.522712,31.264385,上海市,上海市,杨浦区,0.7692440406846421,0.23357879803963524,0.763075155399362,0.6590238897229059,0.34318005548832103,0.8179883711403027,0.47083666120167134,0.5357674900989668
昆明路1268弄小区,商务住宅,住宅区,昆明路1268弄7-9号,121.525519,31.267652,上海市,上海市,杨浦区,0.8214768493308737,0.2570191546820573,0.7882091585951464,0.7712546644019653,0.3436467891822565,0.8063435350653729,0.5575609061713905,0.5833369042521654
海友酒店(上海江浦公园地铁站店),酒店住宿,其他,齐齐哈尔路872号,121.525308,31.266025,上海市,上海市,杨浦区,0.8131268224408142,0.25085263946846437,0.7643326941580825,0.7220092630207293,0.3396686273564105,0.8107711604025982,0.5301457549664451,0.5661525500298488
印坊创意园,商务住宅,产业园区,齐齐哈尔路与昆明路交叉口东120米,121.525422,31.266904,上海市,上海市,杨浦区,0.8183553388803528,0.25468004913545145,0.7782994749076911,0.749355899124775,0.34257587253687244,0.8089362812598667,0.5457160559038607,0.575891967610269
上海国际设计交流中心,商务住宅,产业园区,长阳路1080弄6号楼304-305室,121.524747,31.263873,上海市,上海市,杨浦区,0.7875798746591617,0.23489617450030417,0.7194136756222045,0.6450740334088622,0.3267088004373078,0.8076194929034466,0.4811500630279756,0.534882881695612
蓝泰公寓,酒店住宿,经济型连锁酒店,长阳路999号,121.522715,31.264488,上海市,上海市,杨浦区,0.7708288180578015,0.2344216065171172,0.766658742868579,0.6637973109759444,0.3442067409364514,0.8189452604071972,0.47328067265346,0.5376937036363576
仁恒海上源,商务住宅,其他,昆明路1299弄,121.524104,31.267335,上海市,上海市,杨浦区,0.813276726346567,0.25310614872249604,0.8129075022382374,0.776112155921698,0.3513212688885996,0.81694765405532,0.5416607789780891,0.5819242430710113
江浦路989弄3,商务住宅,住宅区,江浦路989弄3号,121.522369,31.265635,上海市,上海市,杨浦区,0.7816922898903367,0.24167857224064365,0.8097183044090334,0.7158695623364525,0.35770697189100453,0.8259445897886104,0.49614547975167983,0.5572134830167157
齐齐哈尔路833弄3号,商务住宅,其他,齐齐哈尔路825号附近,121.525505,31.265084,上海市,上海市,杨浦区,0.8076089626610488,0.24593855383602128,0.7416772259909129,0.6894754087038705,0.3339099772889962,0.8091055315459923,0.5151487786880762,0.554936652965669
东田公寓,商务住宅,住宅区,眉州路988弄之1-9号,121.529565,31.270403,上海市,上海市,杨浦区,0.8126302312454199,0.2824693988149866,0.7789764685013315,0.7625400321263726,0.3441525374178889,0.7664285908119525,0.6198229903796202,0.5891261749876529
中王小区,商务住宅,住宅区,眉州路938弄,121.529991,31.269375,上海市,上海市,杨浦区,0.8128117037596859,0.2823485255707671,0.7691201667677336,0.7389078457449203,0.34266602959538583,0.7689144414244494,0.6169066309966391,0.5848109273711677
凯阳公寓,商务住宅,住宅区,眉州路888弄,121.53041,31.268398,上海市,上海市,杨浦区,0.8112655110362517,0.28049951125930933,0.758472046352336,0.7185971341054496,0.3401990065786103,0.7722917631641785,0.6127438641807011,0.5798006068629575
上海长眉时尚宾馆,酒店住宿,宾馆酒店,眉州路932号2层,121.529951,31.26897,上海市,上海市,杨浦区,0.8138325505317919,0.2801659374725597,0.7647143420017785,0.7336485181925881,0.34117187416475975,0.7710373393016786,0.6132368301030416,0.583343363215119
互联宝地E座,商务住宅,写字楼,黄兴路221号,121.528198,31.271977,上海市,上海市,杨浦区,0.8090706438158101,0.27365803021809737,0.7923650594637777,0.819288378473239,0.3401085641106831,0.7727634580048581,0.6151451769025252,0.5959122250751432
眉州坊,商务住宅,住宅区,眉州路899弄之1-8号,121.52959,31.268369,上海市,上海市,杨浦区,0.8168884160118767,0.2749309398120485,0.7576703579873749,0.7302883267277077,0.33848907956382845,0.775327772334085,0.6042092024103068,0.5814784534875046
上海四张公寓(眉州路分店),酒店住宿,其他,眉州路眉州坊,121.529922,31.268184,上海市,上海市,杨浦区,0.8148987092876858,0.2761141023687987,0.7553650805990859,0.7226885766990062,0.3384573617139049,0.774937297068762,0.6056902591448996,0.5799019653498584
眉州路950-954号,商务住宅,住宅区,眉州路950、952、954弄,121.529257,31.269915,上海市,上海市,杨浦区,0.8160942998310893,0.2787840658918939,0.7750532484151427,0.7615742806863605,0.34168273291511486,0.7697304884129677,0.6140415213736293,0.5886825487000088
棠人·杨悦,商务住宅,其他,眉州路888弄876-886号,121.529987,31.26863,上海市,上海市,杨浦区,0.8140554648875217,0.278771004901551,0.7607672639124365,0.7280819574089884,0.34012374458976374,0.7725479419957042,0.6106106195211589,0.5818149890497434
阳明新城,商务住宅,住宅区,江浦路1188号,121.521221,31.269527,上海市,上海市,杨浦区,0.801774367445727,0.25240617639555574,0.9135347133131717,0.8771464891226086,0.3844858551019571,0.8365391030373197,0.5600892113981464,0.6116056303664629
信通浦皓园,商务住宅,住宅区,江浦路1200号,121.521581,31.270564,上海市,上海市,杨浦区,0.8073727629876154,0.25138529616339556,0.9118449369938615,0.9088731537283964,0.3772019800966832,0.8324648786578757,0.5746120966756529,0.6198471776473106
阳明苑(茭白园路),商务住宅,住宅区,江浦路1178弄,121.521464,31.269075,上海市,上海市,杨浦区,0.8019550066534128,0.25245201576193316,0.9025689180630795,0.8597121026337518,0.381535973829072,0.8341518539110476,0.554485685175878,0.6064929613088804
金隅外滩东岸(建设中),商务住宅,住宅区,江浦路(地铁站)6号口步行651米,121.524581,31.27175,上海市,上海市,杨浦区,0.8154416753822877,0.2537204703825786,0.8402064806870496,0.9026787506086841,0.33941689109033274,0.8021277888553301,0.5930311332814826,0.6125239690613757
阳明商务中心,商务住宅,商住两用楼宇,江浦路1188号,121.520937,31.269307,上海市,上海市,杨浦区,0.7981124407407774,0.25236965152436913,0.9178989576126544,0.8708149044062786,0.3884318079712154,0.8388750269110188,0.5556109324450685,0.6096044029482491
尚悦国际,商务住宅,其他,江浦路(地铁站)6号口步行477米,121.52156,31.269286,上海市,上海市,杨浦区,0.8037526543001721,0.2525294253614269,0.9027104753741193,0.8666450058672807,0.3801647706884608,0.8334447815815315,0.5580257208421497,0.6085848627786146
仁恒海上源,商务住宅,其他,[],121.523705,31.270599,上海市,上海市,杨浦区,0.8175118481913872,0.2536298941757354,0.858777167641657,0.8864880061729536,0.35234996937722746,0.8114634063940535,0.5817396518240671,0.6123954021754091
瀚海明玉大酒店,酒店住宿,四星级宾馆,周家嘴路1888号,121.515011,31.265617,上海市,上海市,杨浦区,0.6312051253965861,0.22904113401252663,0.8822400403363277,0.6454258418132273,0.43241773116334054,0.7820818426258914,0.44334982055774586,0.5046585659886051
东银茗苑,商务住宅,住宅区,通北路988号,121.514763,31.266725,上海市,上海市,杨浦区,0.6516517823096507,0.2361155596197106,0.924561780437008,0.7020412943721783,0.4491865657784713,0.8018761036320207,0.470359393767237,0.5294787822442872
宝钢又一村,商务住宅,其他,周家嘴路1683弄,121.51248,31.265921,上海市,上海市,杨浦区,0.5675923191802108,0.2204116403955837,0.856324219737432,0.5904610583605189,0.4367491494037778,0.7350381766725057,0.41834545699543013,0.4673598987552084
锦丽斯公寓,商务住宅,住宅区,江浦路街道周家嘴路2000号,121.515773,31.266164,上海市,上海市,杨浦区,0.6638288153661301,0.23558104615228245,0.9100991129256186,0.6935006522005642,0.4360738962625056,0.8066587160685859,0.4658485921039443,0.529465741663242
辽阳小区,商务住宅,住宅区,唐山路1280弄1-14号,121.514481,31.26395,上海市,上海市,杨浦区,0.5729959976563918,0.21170560715488004,0.791500541605049,0.5328211118012409,0.4013351274144569,0.7273252916218288,0.3883906064880662,0.44805457151731143
布丁酒店(周家嘴路店),酒店住宿,经济型连锁酒店,周家嘴路锦丽斯公寓,121.5154,31.266097,上海市,上海市,杨浦区,0.6528630122024157,0.2339632880203548,0.9056432281106505,0.6820434439558587,0.43761604123424525,0.7992848059515765,0.46047538396689874,0.522860493728234
昌大公寓,商务住宅,住宅区,飞虹路648弄1-7号,121.511009,31.266374,上海市,上海市,杨浦区,0.534957835377176,0.21547941157495284,0.8386594310800467,0.5609103597200447,0.4334287272164706,0.7071775252418794,0.4053845982133101,0.4474111225868906
熙公馆,商务住宅,写字楼,昆明路与通北路交叉口西80米,121.515648,31.263589,上海市,上海市,杨浦区,0.5972780677403295,0.21310439393281327,0.7833779251835206,0.5357647253331318,0.39277425651602293,0.7428072940968223,0.3915412891961914,0.45709534141232466
飞虹路723弄小区,商务住宅,住宅区,飞虹路723弄1-11号,121.513555,31.266991,上海市,上海市,杨浦区,0.6273373325720603,0.23340562005574114,0.9180730293720784,0.6821912383694387,0.45596121868759854,0.7863721527036105,0.4629019523947667,0.5166877018014463
36街坊第一,商务住宅,住宅区,飞虹路723弄,121.513338,31.267148,上海市,上海市,杨浦区,0.6256960344142446,0.2335118666500948,0.9196329047495673,0.6835827754487381,0.4581340640470487,0.7859261739124933,0.46405497899817133,0.5168017098818143
飞虹路755弄小区,商务住宅,住宅区,飞虹路755弄,121.513433,31.267173,上海市,上海市,杨浦区,0.6288758534199121,0.23406033275130644,0.9220811565389632,0.6878579282020463,0.4584606667970488,0.7882737517020094,0.4659737044466489,0.5191108610869749
飞虹路740-742号小区,商务住宅,住宅区,飞虹路740-742号,121.513336,31.267556,上海市,上海市,杨浦区,0.6362755662976198,0.23597897174174315,0.9321777836447704,0.7040418493164897,0.4634359674646756,0.7947439577490122,0.4742803769830071,0.5267479193877475
飞虹公寓,商务住宅,住宅区,飞虹路722弄之1-9号,121.512654,31.267437,上海市,上海市,杨浦区,0.6149717787491807,0.23224310614992055,0.9155373973907746,0.6755049374738087,0.46107129128862573,0.7785232150797212,0.461611344098809,0.5112566123527097
拾加拾宾馆(上海新华医院店),酒店住宿,宾馆酒店,周家嘴路2010号(近大连路地体站),121.515484,31.266172,上海市,上海市,杨浦区,0.6567370709828826,0.23474136480098937,0.9091471091533018,0.6880815092905509,0.4381510309343755,0.8021933043424285,0.4633078180541077,0.5258932044674898
飞虹路公房,商务住宅,住宅区,飞虹路755弄路2号,121.513819,31.267393,上海市,上海市,杨浦区,0.6444592008388966,0.23690036204953638,0.9349909836172543,0.7107857615124893,0.4607735568530978,0.7997373037700849,0.47643354687282946,0.5310101615838012
姚家桥小区,商务住宅,住宅区,飞虹路1047弄2-48号,121.5153,31.2681,上海市,上海市,杨浦区,0.6951659014500416,0.24496342069725918,0.9681318480971823,0.7838732767233616,0.4598473346779085,0.8328201388745352,0.5079777933238768,0.5671954672757034
文通大厦,商务住宅,写字楼,昆明路739号,121.515456,31.26355,上海市,上海市,杨浦区,0.5907416288571156,0.21192832742783416,0.7795277310732284,0.5296663582843202,0.39231588540905044,0.737546023151548,0.3881320622394238,0.4528280114373556
高和云峰,商务住宅,写字楼,通北路749号,121.515267,31.264154,上海市,上海市,杨浦区,0.6013893184122481,0.2171753394264272,0.8118007127296621,0.5626248352405161,0.40504929898240755,0.7503126661499746,0.40418315868066723,0.46766540517856775
汇龙园(周家嘴路),商务住宅,其他,周家嘴路与通北路交叉口东北140米,121.515446,31.266242,上海市,上海市,杨浦区,0.6573923484205022,0.23510350384675308,0.9117226265360654,0.691224405207173,0.43934817963712686,0.802959465165778,0.4647847094634241,0.5271337862710523
唐山路1319号院,商务住宅,住宅区,唐山路与通北路交叉口西40米,121.514637,31.264807,上海市,上海市,杨浦区,0.6003808129970659,0.2206871452488238,0.839672341265478,0.5882669379411462,0.4190224964787584,0.7546296352619432,0.4159580717357633,0.4761185068200802
飞虹路760弄小区,商务住宅,住宅区,飞虹路与通北路交叉口北80米,121.512946,31.267734,上海市,上海市,杨浦区,0.6307749659042985,0.2353157868061862,0.9300739702945424,0.6999216233458628,0.46548393865997617,0.7909928435774121,0.4732787523825137,0.5240038457641878
许昌路1265弄小区,商务住宅,住宅区,许昌路1265弄之1-2号,121.515735,31.267802,上海市,上海市,杨浦区,0.6983163533946419,0.24483300990839302,0.9624094237404569,0.7788370200406132,0.4536683835821991,0.833123705557751,0.5050144243471393,0.5660918380986052
辽阳大楼小区,商务住宅,其他,辽阳路540号,121.513589,31.264087,上海市,上海市,杨浦区,0.54978798183286,0.2086744678394319,0.7858314712557284,0.5181181025581545,0.40318430515705694,0.7100413747132431,0.3805847531311579,0.4354219795759559
宝钢又一村南区,商务住宅,住宅区,周家嘴路1683弄,121.51269,31.265729,上海市,上海市,杨浦区,0.5684873705659115,0.21989837558627406,0.8524413594725594,0.586735342876458,0.4342208398732529,0.7349465917550967,0.4161705258201285,0.466246803985982
泰鸿苑,商务住宅,住宅区,周家嘴路2188弄-1-22号,121.517512,31.267792,上海市,上海市,杨浦区,0.7336945003732486,0.2479468102611431,0.9552145401476839,0.8038124694085389,0.4333915451271841,0.8449186692527414,0.515363262847234,0.5804274966085643
连家宾馆,酒店住宿,宾馆酒店,周家嘴路2130号,121.517001,31.267606,上海市,上海市,杨浦区,0.7207849770940351,0.24645325105831023,0.9547885501416589,0.7893620523514702,0.438797103370884,0.8408371840756099,0.5090968359213912,0.5736001441742589
合生高尔夫公寓,商务住宅,住宅区,许昌路1128弄,121.51835,31.2668,上海市,上海市,杨浦区,0.7336298884241417,0.24378825830411968,0.9188126685743546,0.7616985317853472,0.4156465225066783,0.8379052151233579,0.49839631640589555,0.5664898389159625
摩卡大楼,商务住宅,写字楼,江浦路街道周家嘴路2088号,121.516208,31.266791,上海市,上海市,杨浦区,0.6880145925194467,0.24063763998675589,0.9335652405260992,0.7359948968183427,0.44008862143834365,0.8234921815086099,0.4853782970894078,0.5493964993900872
泰鸿商务楼,商务住宅,其他,周家嘴路2110号7F,121.516882,31.267431,上海市,上海市,杨浦区,0.7152319362373675,0.2454555581410735,0.950889110159766,0.7792537932966739,0.43894755067016983,0.8381867085305201,0.5046844174903304,0.5692519214079907
许昌路1182号小区,商务住宅,住宅区,许昌路与唐山路交叉口东南80米,121.517274,31.266352,上海市,上海市,杨浦区,0.7033984814548223,0.24003039632859874,0.9150752127539394,0.727477405166657,0.424491027612003,0.8277329883249367,0.4821859758851695,0.5497091774493419
格雅酒店上海北外滩大连路地铁站店,酒店住宿,宾馆酒店,许昌路1220号,121.517045,31.266769,上海市,上海市,杨浦区,0.7064019109108235,0.24218162278737437,0.9303798191317775,0.74722549254449,0.43131079617640805,0.8314095196222193,0.49068022347755497,0.5568678710878948
江浦社区文化活动中心,商务住宅,社区中心,许昌路1150号4楼(近江浦街道),121.517616,31.265925,上海市,上海市,杨浦区,0.7026257283465389,0.23772512879578575,0.8969343286150235,0.7076999810823446,0.41616620853289243,0.8243253147377456,0.4738480778624382,0.5430122290091046
唐山路1380弄小区,商务住宅,住宅区,唐山路1380弄1-7号,121.516545,31.266443,上海市,上海市,杨浦区,0.6885952834949473,0.23931583272685056,0.921260495863963,0.7225414789923252,0.4329927292919633,0.8219097233274009,0.47941639285557913,0.5449642749913663
现代星洲城2期,商务住宅,其他,江浦路1195号附近,121.520207,31.26739,上海市,上海市,杨浦区,0.7731440990939461,0.24793311802194537,0.9006932618638325,0.796348773134863,0.39406775025037905,0.8383815020334396,0.5192320925335087,0.5833805911807806
江浦路1199弄28号,商务住宅,住宅区,江浦路(地铁站)6号口步行549米,121.518424,31.268163,上海市,上海市,杨浦区,0.7548463286544276,0.24988614169239726,0.9507883711392211,0.827205756910936,0.4218312603900494,0.8485713148879569,0.5260743710127357,0.5908818293010794
现代星洲城1期,商务住宅,其他,庄河路与江浦路交叉口西120米,121.519885,31.267846,上海市,上海市,杨浦区,0.773527230720934,0.2493741395652205,0.9173446884261354,0.8165092051821939,0.4000720545772902,0.8420552826529579,0.5261873137144855,0.5897976184963376
赤峰公安公寓,商务住宅,住宅区,赤峰路91-93号,121.497498,31.281184,上海市,上海市,杨浦区,0.39618569651505053,0.04874709421939922,0.20664994104090914,0.12395707163868544,0.2406388237815408,0.38231349740422504,0.14866337975177182,0.1680700279757307
愚慧阁,商务住宅,住宅区,赤峰路89弄1号,121.498347,31.280939,上海市,上海市,杨浦区,0.42880252053132856,0.056865562250553704,0.23285749553042,0.14273661283185496,0.26171066226364986,0.41915232703563915,0.17127004876628732,0.19142740456436624
同济创意设计大厦,商务住宅,写字楼,赤峰路63号8号楼,121.500962,31.279064,上海市,上海市,杨浦区,0.5168940304788425,0.09189873323806447,0.36187280322977405,0.22827643007795728,0.3300948461747745,0.5346619603034287,0.2528126371170859,0.277157369014149
